City_ID,City,Lat,Lng,Max Temp,Humidity,Cloudiness,Wind Speed,Country,Date
0,el bauga,18.262,33.9081,32.96,12,26,6.77,SD,1687905362
1,port-aux-francais,-49.35,70.2167,2.6,80,93,8.97,TF,1687905135
2,blackmans bay,-43.0167,147.3167,6.07,80,59,4.25,AU,1687905363
3,machico,32.7,-16.7667,28.4,24,0,6.17,PT,1687905363
4,adamstown,-25.066,-130.1015,21.06,74,89,12.15,PN,1687905137
5,grytviken,-54.2811,-36.5092,-5.63,76,99,4.21,GS,1687905147
6,imperatriz,-5.5264,-47.4917,27.24,48,70,1.55,BR,1687905249
7,zheleznodorozhnyy,55.7503,38.0042,16.23,86,100,1.04,RU,1687905364
8,colonia,50.9333,6.95,18.66,72,100,0.51,DE,1687905364
9,waitangi,-43.9535,-176.5597,12.68,92,100,5.36,NZ,1687905135
10,tuy hoa,13.0833,109.3,25.48,89,37,1.61,VN,1687905364
11,lukolela,-1.0605,17.1821,23.16,79,100,0.95,CD,1687905365
12,port mathurin,-19.6833,63.4167,22.38,58,71,2.97,MU,1687905135
13,yellowknife,62.456,-114.3525,24.29,41,20,4.63,CA,1687905365
14,edinburgh of the seven seas,-37.0676,-12.3116,12.32,71,50,1.08,SH,1687905365
15,zharkent,44.1628,80.0,19.77,45,36,1.84,KZ,1687905365
16,egilsstadir,65.2653,-14.3948,8.95,87,100,6.69,IS,1687905365
17,chazuta,-6.5742,-76.1367,30.47,77,87,0.53,PE,1687905366
18,nikolayevsk-on-amure,53.1406,140.73,21.2,56,6,1.42,RU,1687905366
19,alice springs,-23.7,133.8833,12.75,100,100,0.0,AU,1687905366
20,keflavik,64.0049,-22.5624,11.24,87,100,7.2,IS,1687905366
21,konarka,19.9,86.1167,28.22,77,99,8.3,IN,1687905366
22,hithadhoo,-0.6,73.0833,27.83,70,41,2.15,MV,1687905168
23,puerto ayora,-0.7393,-90.3518,28.98,85,31,2.68,EC,1687905367
24,barra do corda,-5.5,-45.25,28.23,47,60,1.93,BR,1687905367
25,macae,-22.3708,-41.7869,22.86,83,0,3.09,BR,1687905367
26,anadyr,64.75,177.4833,8.28,93,75,7.0,RU,1687905367
27,lunglei,22.8833,92.7333,19.23,97,92,1.09,IN,1687905367
28,bethel,41.3712,-73.414,25.2,78,75,4.63,US,1687905158
29,ribeira grande,38.5167,-28.7,20.99,85,16,7.15,PT,1687905160
30,undurkhaan,47.3194,110.6556,13.44,50,100,4.58,MN,1687905368
31,murzuq,25.9155,13.9184,29.86,23,0,4.31,LY,1687905368
32,vorgashor,67.5833,63.95,7.39,71,83,2.1,RU,1687905368
33,lihue,21.9789,-159.3672,28.77,63,0,8.23,US,1687905207
34,margaret river,-33.95,115.0667,12.81,74,78,2.9,AU,1687905138
35,ulsteinvik,62.3432,5.8487,14.31,86,65,1.34,NO,1687905368
36,luderitz,-26.6481,15.1594,13.37,87,64,9.14,NA,1687905369
37,wailua homesteads,22.0669,-159.378,28.44,71,0,8.23,US,1687905369
38,gadzhiyevo,69.2551,33.3362,10.08,79,78,1.67,RU,1687905194
39,la passe,45.5549,-0.8967,21.13,74,51,3.92,FR,1687905369
40,ushuaia,-54.8,-68.3,-4.19,68,20,2.57,AR,1687905369
41,kasongo-lunda,-6.4667,16.8167,22.06,62,4,0.92,CD,1687905370
42,port elizabeth,-33.918,25.5701,16.29,87,20,8.75,ZA,1687905370
43,ilulissat,69.2167,-51.1,8.01,66,100,5.14,GL,1687905370
44,itacare,-14.2775,-38.9967,22.03,86,20,2.85,BR,1687905370
45,belmonte,-15.8631,-38.8828,22.18,83,2,2.76,BR,1687905370
46,isafjordur,66.0755,-23.124,8.06,95,100,7.62,IS,1687905141
47,zahedan,29.4963,60.8629,28.95,14,0,4.12,IR,1687905371
48,katsuren-haebaru,26.3369,127.8719,28.01,83,20,2.06,JP,1687905371
49,akureyri,65.6835,-18.0878,11.96,62,75,4.12,IS,1687905139
50,lebu,-37.6167,-73.65,9.95,84,47,0.25,CL,1687905191
51,tamanrasset,22.785,5.5228,30.95,12,40,2.06,DZ,1687905371
52,college,64.8569,-147.8028,20.67,48,75,2.57,US,1687905160
53,greenville,35.6127,-77.3663,31.09,51,75,4.12,US,1687904846
54,dhalie,13.6957,44.7314,25.99,44,45,1.71,YE,1687905372
55,pontianak,-0.0333,109.3333,23.99,94,34,1.54,ID,1687905372
56,atafu village,-8.5421,-172.5159,28.59,78,35,6.98,TK,1687905136
57,san juan de la rambla,28.3928,-16.6502,29.84,83,9,1.97,ES,1687905372
58,kalinkavichy,52.1323,29.3257,14.04,86,98,1.26,BY,1687905373
59,kirakira,-10.4544,161.9205,26.8,82,100,4.04,SB,1687905373
60,alenquer,-1.9417,-54.7383,26.25,64,60,1.87,BR,1687905373
61,moncao,42.0789,-8.4808,25.29,69,75,2.27,PT,1687905373
62,horta,38.5333,-28.6333,20.57,84,15,6.71,PT,1687905373
63,newman,37.3138,-121.0208,32.23,10,66,1.0,US,1687905255
64,jamestown,42.097,-79.2353,18.8,88,100,5.66,US,1687905231
65,akrehamn,59.2667,5.1833,14.44,82,20,3.6,NO,1687905373
66,sona,45.4388,10.8255,23.75,64,75,6.17,IT,1687905374
67,whitehorse,60.7161,-135.0538,22.28,35,75,5.14,CA,1687905300
68,west island,-12.1568,96.8225,23.99,88,75,6.17,CC,1687905374
69,albany,42.6001,-73.9662,24.77,78,100,0.45,US,1687905136
70,rey bouba,8.6724,14.1786,24.7,79,90,1.09,CM,1687905374
71,vadso,70.0744,29.7487,8.49,93,100,3.09,NO,1687905176
72,thompson,55.7435,-97.8558,24.09,43,75,1.54,CA,1687905136
73,kingscliff,-28.2667,153.5667,16.89,55,100,2.06,AU,1687905375
74,lompoc,34.6391,-120.4579,24.45,74,75,8.23,US,1687905375
75,bullsbrook,-31.6667,116.0,9.29,87,31,3.09,AU,1687905375
76,ar rutbah,33.0381,40.2848,26.05,31,0,4.52,IQ,1687905375
77,weno,7.4515,151.8468,27.97,89,100,2.06,FM,1687905375
78,red lion,39.9009,-76.6058,24.96,81,55,2.72,US,1687905376
79,kavaratti,10.5669,72.642,28.03,73,100,6.68,IN,1687905376
80,thanh hoa,19.8,105.7667,26.17,93,65,1.03,VN,1687905376
81,kembe,4.6228,21.8865,20.98,96,68,0.7,CF,1687905376
82,broome,42.2506,-75.833,24.21,84,75,3.58,US,1687905376
83,aykhal,66.0,111.5,18.81,39,87,4.16,RU,1687905200
84,palikir - national government center,6.9248,158.1611,29.47,74,75,2.57,FM,1687905377
85,qoryooley,1.7878,44.53,23.26,88,3,4.43,SO,1687905377
86,pacific grove,36.6177,-121.9166,21.25,80,100,4.63,US,1687905378
87,ambon,-3.6954,128.1814,28.82,76,40,2.06,ID,1687905378
88,wenchang,30.904,118.4887,27.39,82,82,1.7,CN,1687905378
89,mejit,10.2753,170.8646,28.18,80,98,8.84,MH,1687905378
90,iqaluit,63.7506,-68.5145,4.85,80,100,5.14,CA,1687905378
91,papatowai,-46.5619,169.4708,10.58,97,100,3.37,NZ,1687905383
92,tsengel,49.4783,100.8894,7.57,79,3,0.93,MN,1687905383
93,codrington,-38.2667,141.9667,9.52,91,82,2.98,AU,1687905383
94,kerikeri,-35.2268,173.9474,14.32,76,11,3.9,NZ,1687905383
95,olonkinbyen,70.9221,-8.7187,7.31,94,2,6.11,SJ,1687905383
96,constantia,44.1833,28.65,19.38,63,0,5.23,RO,1687905245
97,xishan,27.6667,113.5,26.0,89,95,1.55,CN,1687905140
98,ostersund,63.1792,14.6357,17.56,31,20,2.57,SE,1687905384
99,talnakh,69.4865,88.3972,10.67,70,100,1.43,RU,1687905197
100,kolonia,50.9333,6.95,18.66,72,100,0.51,DE,1687905208
101,ust-nera,64.5667,143.2,22.06,55,55,2.46,RU,1687905384
102,invercargill,-46.4,168.35,10.95,95,100,1.56,NZ,1687905384
103,delacombe,-37.5891,143.8147,5.97,96,100,0.89,AU,1687905384
104,enewetak,11.3474,162.3373,28.18,79,89,7.76,MH,1687905141
105,bandarbeyla,9.4942,50.8122,24.45,81,9,12.82,SO,1687905384
106,hawaiian paradise park,19.5933,-154.9731,25.41,86,100,3.09,US,1687905384
107,nosy varika,-20.5833,48.5333,16.66,90,50,2.45,MG,1687905385
108,farum,55.8086,12.3607,16.81,82,86,5.76,DK,1687905385
109,saint-joseph,-21.3667,55.6167,21.37,77,75,2.84,RE,1687905385
110,petropavlovsk-kamchatsky,53.0452,158.6483,16.33,82,75,2.0,RU,1687905138
111,levuka,50.1834,-105.4011,27.9,32,75,3.09,CA,1687905385
112,conception bay south,47.4999,-52.9981,9.95,88,93,6.4,CA,1687905200
113,solwezi,-12.1688,26.3894,13.62,59,2,1.41,ZM,1687905385
114,nemuro,43.3236,145.575,13.9,99,100,7.41,JP,1687905185
115,betio village,1.358,172.9211,26.02,82,100,4.52,KI,1687905386
116,acarau,-2.8856,-40.12,26.09,78,48,6.62,BR,1687905386
117,bredasdorp,-34.5322,20.0403,11.11,95,89,1.86,ZA,1687905386
118,khanpur mahar,27.8436,69.4137,32.25,49,100,5.33,PK,1687905386
119,tanumah,27.1,44.1333,31.98,9,0,4.22,SA,1687905386
120,puerto natales,-51.7236,-72.4875,0.93,99,100,0.18,CL,1687905386
121,shendi,16.6915,33.4341,34.91,13,22,4.32,SD,1687905386
122,sao pedro do sul,-29.6206,-54.1789,18.46,78,84,2.78,BR,1687905386
123,mar del plata,-38.0023,-57.5575,8.86,86,0,2.57,AR,1687905387
124,saipan,15.1355,145.701,29.39,100,40,4.12,MP,1687905140
125,kabalo,-6.05,26.9167,24.73,43,6,1.52,CD,1687905387
126,al jubayl,27.0112,49.6583,32.48,38,37,4.8,SA,1687905387
127,sisimiut,66.9395,-53.6735,4.17,87,96,4.44,GL,1687905387
128,noumea,-22.2763,166.4572,21.11,99,80,4.61,NC,1687904716
129,fale old settlement,-9.3852,-171.2468,28.92,74,32,7.12,TK,1687905387
130,ingeniero jacobacci,-41.3427,-69.5448,3.48,76,19,10.69,AR,1687905388
131,kodiak,57.79,-152.4072,8.73,93,100,6.17,US,1687905388
132,san patricio,28.017,-97.5169,37.88,48,7,8.1,US,1687905388
133,san francisco ixhuatan,16.3569,-94.4825,30.47,65,100,4.16,MX,1687905388
134,afaahiti,-17.75,-149.2833,28.93,75,14,10.84,PF,1687905388
135,tura,25.5198,90.2201,23.29,97,99,2.97,IN,1687905142
136,hafar al-batin,28.4328,45.9708,31.32,16,0,1.54,SA,1687905388
137,uray,60.1247,64.7758,11.33,71,52,1.99,RU,1687905139
138,vilyuchinsk,52.9306,158.4028,17.15,76,94,0.2,RU,1687905388
139,kajuru,10.3192,7.6892,21.73,92,99,2.19,NG,1687905389
140,chipinge,-20.1883,32.6236,9.02,71,9,1.66,ZW,1687905389
141,tsiombe,-25.3,45.4833,15.18,88,0,1.37,MG,1687905389
142,shimoda,34.6667,138.95,25.74,90,100,4.47,JP,1687905389
143,cannonvale,-20.2833,148.7,21.66,82,49,2.05,AU,1687905389
144,isangel,-19.55,169.2667,23.06,78,40,1.54,VU,1687905212
145,tiksi,71.6872,128.8694,6.24,75,96,5.31,RU,1687905389
146,wangqing,43.3218,129.7634,20.55,93,100,2.28,CN,1687905390
147,selfoss,63.9331,-20.9971,9.47,77,100,7.52,IS,1687905390
148,san lawrenz,36.0553,14.204,23.25,89,0,2.56,MT,1687905390
149,lerwick,60.1545,-1.1494,14.0,96,97,8.14,GB,1687905390
150,jiangyou,31.7667,104.7167,22.95,94,100,2.87,CN,1687905354
151,usinsk,65.9939,57.5281,9.25,95,100,2.53,RU,1687905390
152,badger,64.8,-147.5333,20.63,48,40,2.57,US,1687905391
153,fisterra,42.9049,-9.2629,20.01,81,27,8.61,ES,1687905391
154,taraz,42.9,71.3667,17.23,51,10,4.0,KZ,1687905333
155,hadibu,12.65,54.0333,26.13,80,81,10.16,YE,1687905215
156,revda,56.801,59.9303,8.7,97,35,2.04,RU,1687905391
157,fayroz koh,34.5195,65.2509,14.14,34,0,1.24,AF,1687905391
158,st. john's,47.5649,-52.7093,10.08,89,75,7.2,CA,1687905391
159,flying fish cove,-10.4217,105.6791,23.82,83,100,4.63,CX,1687905191
160,el calafate,-50.3408,-72.2768,-0.05,89,97,0.64,AR,1687905392
161,barcelos,41.5388,-8.6151,24.82,66,17,2.13,PT,1687905392
162,gordonvale,-17.0936,145.7842,23.28,94,90,2.05,AU,1687905392
163,laojunmiao,39.8333,97.7333,16.31,32,73,2.59,CN,1687905392
164,hermanus,-34.4187,19.2345,14.33,87,100,2.31,ZA,1687905392
165,klimavichy,53.6135,31.9385,12.67,98,98,2.24,BY,1687905392
166,letlhakane,-21.4167,25.5833,13.2,32,0,4.25,BW,1687905393
167,paracuru,-3.41,-39.0306,27.28,78,15,4.72,BR,1687905393
168,tucupita,9.0622,-62.051,24.18,98,93,0.75,VE,1687905393
169,utrik,11.2278,169.8474,28.06,81,100,8.42,MH,1687905393
170,kalianget,-7.05,113.9333,25.92,80,39,2.99,ID,1687905393
171,kapa'a,22.0752,-159.319,29.18,71,0,8.23,US,1687905393
172,vilyuysk,63.7553,121.6247,21.86,63,100,2.13,RU,1687905394
173,alta,69.9689,23.2717,13.59,72,35,2.57,NO,1687905394
174,pueblo nuevo,23.3833,-105.3833,26.2,41,28,3.9,MX,1687905394
175,prince rupert,54.3161,-130.3201,20.05,84,0,3.6,CA,1687905394
176,kayangel,8.0823,134.7173,28.84,71,100,2.61,PW,1687905394
177,labrador city,52.9463,-66.9114,13.95,94,100,4.63,CA,1687905395
178,pierre,44.3683,-100.351,23.51,66,75,9.26,US,1687905395
179,chulakkurgan,43.765,69.1814,17.84,30,22,4.74,KZ,1687905395
180,portland,45.5234,-122.6762,29.41,44,75,3.09,US,1687905372
181,trairi,-3.2778,-39.2689,25.65,78,14,4.09,BR,1687905176
182,del rio,29.3627,-100.8968,43.06,19,0,8.75,US,1687905196
183,bilibino,68.0546,166.4372,10.29,57,99,2.12,RU,1687905139
184,nagqu,31.5,92.0,4.03,94,100,2.84,CN,1687905395
185,fort morgan,40.2503,-103.8,34.59,37,0,3.5,US,1687905269
186,salekhard,66.53,66.6019,8.13,65,100,3.18,RU,1687905395
187,francistown,-21.17,27.5079,12.55,30,0,3.53,BW,1687905396
188,sambava,-14.2667,50.1667,18.78,80,4,4.5,MG,1687905396
189,shuangcheng,45.35,126.2833,20.82,89,97,4.14,CN,1687905396
190,port douglas,-16.4833,145.4667,23.79,74,93,4.77,AU,1687905396
191,novosilikatnyy,53.3097,83.6239,15.32,82,75,4.0,RU,1687905396
192,noshiro,40.2039,140.0242,22.81,91,100,4.08,JP,1687905396
193,mikhaylovskoye,51.8239,79.7172,14.42,73,20,5.77,RU,1687905397
194,cidade velha,14.9167,-23.6167,25.26,73,20,6.17,CV,1687905397
195,dabwali,29.95,74.7333,31.16,62,56,3.58,IN,1687905397
196,naze,28.3667,129.4833,25.51,84,99,3.8,JP,1687905397
197,cidreira,-30.1811,-50.2056,17.82,83,57,2.81,BR,1687905165
198,polyarnyy,69.1989,33.4478,10.48,78,78,1.11,RU,1687905397
199,port alfred,-33.5906,26.891,16.77,84,100,3.13,ZA,1687905397
200,rabo de peixe,37.8,-25.5833,20.73,88,20,5.66,PT,1687905398
201,thoen,17.6129,99.2161,23.72,99,100,0.34,TH,1687905398
202,new norfolk,-42.7826,147.0587,6.72,90,70,1.39,AU,1687905398
203,connell,46.6635,-118.8611,30.98,32,99,2.24,US,1687905398
204,corn island,12.1694,-83.0418,28.1,78,91,4.38,NI,1687905398
205,mahibadhoo,3.7833,72.9667,27.85,77,86,4.62,MV,1687905398
206,georgetown,5.4112,100.3354,26.96,90,20,2.06,MY,1687905290
207,cayambe,0.05,-78.1333,12.37,80,84,2.03,EC,1687905399
208,dudinka,69.4058,86.1778,10.9,61,47,2.17,RU,1687905399
209,chonchi,-42.6128,-73.8092,8.56,94,31,1.33,CL,1687905399
210,rawlins,41.7911,-107.2387,26.94,9,0,8.75,US,1687905399
211,kingston,17.997,-76.7936,29.53,87,75,4.12,JM,1687905250
212,port macquarie,-31.4333,152.9167,12.16,52,100,1.49,AU,1687905399
213,ketchikan,55.3422,-131.6461,22.26,60,40,4.63,US,1687905259
214,port augusta,-32.5,137.7667,11.51,86,96,2.91,AU,1687905400
215,shahba,32.8551,36.629,17.77,53,0,4.98,SY,1687905400
216,callao,-12.0667,-77.15,22.62,68,75,6.17,PE,1687905117
217,estevan,49.1334,-102.9842,27.9,50,0,2.06,CA,1687905400
218,acapulco de juarez,16.8634,-99.8901,31.9,66,20,5.14,MX,1687905234
219,sinop,41.7711,34.8709,14.76,56,0,2.52,TR,1687905400
220,hamilton,39.1834,-84.5333,24.39,69,100,4.63,US,1687905401
221,fort bragg,35.139,-79.006,32.08,46,20,6.17,US,1687905401
222,port saint john's,-31.6229,29.5448,18.23,88,100,6.17,ZA,1687905401
223,coquimbo,-29.9533,-71.3436,15.85,77,0,3.09,CL,1687905401
224,craig,40.5153,-107.5464,28.97,7,0,12.35,US,1687905401
225,ust'-ilimsk,58.0006,102.6619,11.93,80,100,2.02,RU,1687905401
226,quelimane,-17.8786,36.8883,17.97,88,20,1.03,MZ,1687905402
227,itoman,26.1247,127.6694,28.01,83,75,5.14,JP,1687905402
228,amos,48.5669,-78.1162,11.64,98,100,4.84,CA,1687905294
229,mawu,29.5923,107.3139,23.46,87,100,2.04,CN,1687905402
230,mogadishu,2.0371,45.3438,25.05,84,10,6.69,SO,1687905250
231,chernyshevskiy,63.0128,112.4714,18.7,58,95,0.7,RU,1687905402
232,tynda,55.1667,124.7167,16.29,96,100,1.03,RU,1687905133
233,caldwell,43.6629,-116.6874,28.21,37,0,4.63,US,1687905210
234,mili,6.0815,171.735,27.05,86,100,6.14,MH,1687905403
235,crucecita,-28.95,-58.9833,22.99,56,6,3.17,AR,1687905403
236,tralee,52.2704,-9.7026,16.43,97,100,1.93,IE,1687905403
237,potosi,-19.5836,-65.7531,12.48,35,0,2.06,BO,1687905404
238,fuglafjordur,62.244,-6.814,11.26,96,100,3.98,FO,1687905404
239,dul'durga,50.6761,113.5931,11.48,70,87,4.56,RU,1687905404
240,prineville,44.2999,-120.8345,27.4,27,0,6.17,US,1687905404
241,sinabang,2.4803,96.3801,25.89,84,98,0.95,ID,1687905404
242,amalapuram,16.5833,82.0167,28.2,75,100,2.64,IN,1687905404
243,plainview,40.7765,-73.4673,25.82,82,0,4.63,US,1687905297
244,enriquillo,17.9,-71.2333,27.93,75,79,1.83,DO,1687905404
245,coahuayana de hidalgo,18.7,-103.6583,33.0,59,70,3.62,MX,1687905405
246,anna regina,7.2644,-58.5077,26.89,82,87,3.57,GY,1687905405
247,lata,40.1629,-8.3327,23.29,83,0,0.6,PT,1687905220
248,lhokseumawe,5.1801,97.1507,25.13,87,98,1.74,ID,1687905405
249,de aar,-30.6497,24.0123,9.46,80,100,2.53,ZA,1687905406
250,camana,-16.6228,-72.7111,17.21,80,51,2.08,PE,1687905406
251,xining,36.6167,101.7667,13.53,72,100,0.83,CN,1687905406
252,moranbah,-22.0016,148.0466,20.98,67,37,1.32,AU,1687905406
253,stanley,54.868,-1.6985,16.01,92,40,1.03,GB,1687905171
254,praia,14.9215,-23.5087,25.3,73,20,6.17,CV,1687905406
255,ta`u,-14.2336,-169.5144,27.69,72,94,6.42,AS,1687905163
256,minusinsk,53.7103,91.6875,11.01,68,60,1.88,RU,1687905407
257,paita,-5.0892,-81.1144,23.49,78,47,8.9,PE,1687905407
258,geraldton,-28.7667,114.6,6.23,75,0,2.06,AU,1687905367
259,el granada,37.5027,-122.4694,24.23,75,75,7.72,US,1687905407
260,floro,61.5996,5.0328,14.02,88,20,3.09,NO,1687905407
261,navoiy,40.0844,65.3792,27.71,24,0,4.12,UZ,1687905408
262,kapuskasing,49.4169,-82.4331,20.05,32,40,7.2,CA,1687905300
263,peniche,39.3558,-9.3811,20.72,92,0,7.76,PT,1687905408
264,punta arenas,-53.15,-70.9167,1.06,93,100,6.69,CL,1687905273
265,talcahuano,-36.7167,-73.1167,11.82,82,20,1.54,CL,1687905408
266,tazovsky,67.4667,78.7,6.91,89,98,3.21,RU,1687905175
267,san luis,-33.295,-66.3356,10.58,40,32,6.92,AR,1687905408
268,vila franca do campo,37.7167,-25.4333,21.23,88,5,6.2,PT,1687905409
269,otyniya,48.7377,24.8611,12.66,88,100,2.29,UA,1687905409
270,marsh harbour,26.5412,-77.0636,28.73,73,8,3.29,BS,1687905312
271,dupnitsa,42.2667,23.1167,18.27,86,3,0.9,BG,1687905409
272,ponta delgada,37.7333,-25.6667,21.4,88,20,5.66,PT,1687905338
273,purkersdorf,48.1951,16.1626,16.64,74,100,1.99,AT,1687905409
274,menongue,-14.6585,17.691,11.68,40,2,1.39,AO,1687905409
275,north bend,43.4065,-124.2243,22.91,72,75,6.17,US,1687905409
276,paradip garh,20.3167,86.6167,29.01,77,100,7.31,IN,1687905410
277,kosh-agach,50.0,88.6667,10.33,56,74,1.13,RU,1687905410
278,udachny,66.4167,112.4,19.75,39,75,4.8,RU,1687905410
279,necochea,-38.5473,-58.7368,8.41,89,87,5.28,AR,1687905410
280,guiyang,26.5833,106.7167,23.27,78,75,8.0,CN,1687905410
281,bamboo flat,11.7,92.7167,27.97,83,100,3.48,IN,1687905411
282,goba,7.0167,39.9833,10.24,85,18,1.96,ET,1687905411
283,paraty,-23.2178,-44.7131,21.12,59,0,1.67,BR,1687905411
284,verkhnyaya tura,58.3594,59.8175,9.22,92,32,1.97,RU,1687905411
285,plymouth,41.8334,-70.8328,23.45,79,100,4.63,US,1687905248
286,krasnoslobodsk,48.7072,44.5714,17.9,94,75,4.0,RU,1687905411
287,placido de castro,-10.3353,-67.1856,25.91,57,0,1.09,BR,1687905411
288,nova vicosa,-17.8919,-39.3719,22.27,81,4,2.91,BR,1687905411
289,artesia,33.8658,-118.0831,32.16,57,0,4.63,US,1687905411
290,minas de marcona,-15.2119,-75.1103,12.88,80,2,5.25,PE,1687905412
291,ishim,56.1128,69.4902,10.26,84,85,5.67,RU,1687905412
292,kuusamo,65.9667,29.1833,14.02,94,0,2.06,FI,1687905412
293,macapa,0.0389,-51.0664,25.48,83,49,3.21,BR,1687905129
294,san luis de la loma,17.2706,-100.8939,31.08,65,32,3.63,MX,1687905167
295,caras,-9.0467,-77.8114,17.68,67,13,1.22,PE,1687905412
296,cabo san lucas,22.8909,-109.9124,34.54,55,20,7.72,MX,1687905212
297,wewak,-3.5534,143.6268,26.85,84,72,3.57,PG,1687905412
298,faya-largeau,17.9257,19.1043,33.56,12,4,5.06,TD,1687905413
299,manado,1.487,124.8455,25.43,94,40,1.54,ID,1687905413
300,freetown,8.484,-13.2299,25.16,87,100,4.24,SL,1687905413
301,lobujya,27.95,86.8167,2.0,94,93,0.51,NP,1687905413
302,bardai,11.65,7.2333,25.27,73,97,4.46,NG,1687905162
303,east london,-33.0153,27.9116,17.13,84,100,9.94,ZA,1687905414
304,inarajan village,13.2736,144.7484,30.22,87,97,6.03,GU,1687905414
305,antofagasta,-23.65,-70.4,16.6,89,50,1.76,CL,1687905364
306,ancud,-41.8697,-73.8203,8.99,86,29,7.04,CL,1687905171
307,pariaman,-0.619,100.12,25.03,87,85,1.58,ID,1687905414
308,eichstatt,48.8833,11.1833,17.23,52,75,2.06,DE,1687905414
309,tangalle,6.024,80.7911,25.6,83,100,3.35,LK,1687905415
310,tonota,-21.4833,27.4833,12.15,34,0,3.86,BW,1687905200
311,mil'kovo,55.6078,37.7956,16.22,90,100,1.36,RU,1687905142
312,uturoa,-16.7333,-151.4333,26.81,71,0,10.64,PF,1687905415
313,tolanaro,-25.0319,46.9987,16.04,94,20,2.06,MG,1687905415
314,tongchuan,35.0806,109.0897,21.73,88,100,0.56,CN,1687905415
315,hino,35.6731,139.4003,27.42,75,0,1.34,JP,1687905415
316,kapchorwa,1.3965,34.4509,13.1,89,25,1.61,UG,1687905415
317,morant bay,17.8815,-76.4093,29.79,80,100,3.71,JM,1687905416
318,ajaccio,42.0,8.9167,20.03,78,0,2.06,FR,1687905416
319,dunedin,-45.8742,170.5036,11.0,97,100,4.02,NZ,1687905391
320,ghanzi,-21.5667,21.7833,11.24,36,1,5.24,BW,1687905416
321,howrah,22.5892,88.3103,26.0,94,75,4.63,IN,1687905416
322,pizarro,4.9533,-77.366,27.12,82,77,2.74,CO,1687905416
323,praia da vitoria,38.7333,-27.0667,21.53,88,75,6.26,PT,1687905416
324,sumbawa besar,-8.5,117.4333,22.18,92,40,1.92,ID,1687905417
325,linxia chengguanzhen,35.6003,103.2064,15.35,72,100,0.29,CN,1687905417
326,island harbour,50.724,-1.2758,19.02,89,98,1.79,GB,1687905417
327,lagunas,-5.2269,-75.6753,27.07,71,88,0.58,PE,1687905417
328,longyearbyen,78.2186,15.6401,7.91,87,75,1.54,SJ,1687905158
329,scottburgh,-30.2867,30.7532,18.04,87,96,4.58,ZA,1687905418
330,mostaganem,35.9311,0.0892,27.15,51,0,1.76,DZ,1687905418
331,inhambane,-23.865,35.3833,19.18,75,0,2.78,MZ,1687905418
332,carnarvon,-24.8667,113.6333,11.47,65,0,7.61,AU,1687905418
333,susuman,62.7833,148.1667,17.51,65,95,2.64,RU,1687905199
334,borogontsy,62.6683,131.1683,22.01,73,13,1.97,RU,1687905419
335,puerto deseado,-47.7503,-65.8938,5.7,81,100,1.44,AR,1687905419
336,klyuchi,52.2667,79.1667,13.92,78,32,6.02,RU,1687905147
337,kayabaglar,37.9825,41.6653,21.29,26,0,0.85,TR,1687905419
338,kutum,14.2,24.6667,27.35,45,74,6.34,SD,1687905420
339,westport,41.1415,-73.3579,25.71,78,0,4.12,US,1687905258
340,urengoy,65.9667,78.3667,10.32,85,100,1.23,RU,1687905420
341,wieruszow,51.2949,18.1555,11.84,91,33,4.12,PL,1687905420
342,saudarkrokur,65.7461,-19.6394,10.39,82,91,1.59,IS,1687905420
343,vorkuta,67.5,64.0,7.85,71,87,2.07,RU,1687905420
344,lesosibirsk,58.2358,92.4828,11.07,69,92,3.8,RU,1687905420
345,carbonear,47.7332,-53.2148,10.34,84,97,4.92,CA,1687905420
346,boa esperanca do sul,-21.9925,-48.3908,17.83,57,0,0.99,BR,1687905421
347,merritt,50.1123,-120.7942,26.51,38,88,1.64,CA,1687905421
348,el abiodh sidi cheikh,32.893,0.5484,28.81,19,0,4.06,DZ,1687905421
349,gradisca d'isonzo,45.8925,13.5017,21.84,65,100,7.72,IT,1687905421
350,koryazhma,61.3143,47.1691,14.99,70,61,1.64,RU,1687905421
351,abdanan,32.9926,47.4198,26.13,17,0,5.38,IR,1687905421
352,padang,-0.9492,100.3543,25.03,88,94,1.65,ID,1687905421
353,qaqortoq,60.7167,-46.0333,7.05,72,97,2.5,GL,1687905422
354,zag,46.9441,99.165,7.82,41,66,0.64,MN,1687905422
355,hasaki,35.7333,140.8333,27.38,93,99,4.89,JP,1687905422
356,shakhtinsk,49.71,72.5872,12.0,86,100,8.25,KZ,1687905422
357,iguape,-24.7081,-47.5553,20.58,72,0,2.8,BR,1687905422
358,ebon,4.582,168.6964,26.04,82,100,5.66,MH,1687905422
359,san juan de miraflores,-12.1629,-76.9635,21.76,74,65,2.9,PE,1687905422
360,taltal,-25.4,-70.4833,17.54,75,25,1.26,CL,1687905159
361,san buenaventura,27.0833,-101.5333,41.7,11,0,10.03,MX,1687905423
362,kone,-21.0595,164.8658,22.7,53,6,3.04,NC,1687905425
363,aasiaat,68.7098,-52.8699,2.62,92,100,2.24,GL,1687905425
364,haiku-pauwela,20.9219,-156.3051,29.01,64,40,9.26,US,1687905425
365,okhotsk,59.3833,143.3,14.15,82,92,1.93,RU,1687905426
366,cedeira,43.6797,-8.0209,18.87,81,100,7.36,ES,1687905426
367,bowen,-20.0167,148.2333,21.52,76,39,1.43,AU,1687905325
368,geiro,-6.15,36.8667,12.24,92,0,1.53,TZ,1687905426
369,inirida,3.8653,-67.9239,22.58,99,97,0.38,CO,1687905190
370,kununurra,-15.7667,128.7333,22.99,60,75,4.63,AU,1687905426
371,nabire,-3.3667,135.4833,25.63,90,78,1.32,ID,1687905426
372,rockdale,33.6501,-84.0166,31.93,47,0,5.66,US,1687905426
373,viedma,-40.8135,-62.9967,8.44,71,3,2.94,AR,1687905231
374,saldanha,-33.0117,17.9442,10.03,87,100,3.3,ZA,1687905427
375,yuzhno-kurilsk,44.0306,145.8556,13.37,98,100,5.41,RU,1687905427
376,gorno-altaysk,51.9561,85.955,16.04,53,100,1.61,RU,1687905427
377,katsuura,35.1333,140.3,24.02,95,100,5.44,JP,1687905161
378,daru,-9.0763,143.2092,25.07,77,100,7.02,PG,1687905427
379,prado,-17.3411,-39.2208,21.92,85,1,2.53,BR,1687905428
380,leava,-14.3,-178.1667,26.45,80,66,3.74,WF,1687905428
381,trani,41.2727,16.4154,23.81,59,0,1.13,IT,1687905428
382,esmeraldas,-19.7625,-44.3139,17.81,55,1,2.15,BR,1687905168
383,marka,1.7159,44.7717,24.64,85,8,5.91,SO,1687905428
384,richards bay,-28.783,32.0377,17.0,93,2,1.54,ZA,1687904959
385,yulinshi,38.2906,109.7494,20.98,84,100,0.63,CN,1687905428
386,nayoro,44.3506,142.4578,21.17,87,100,2.18,JP,1687905428
387,la foa,-21.7108,165.8276,22.02,54,30,4.89,NC,1687905429
388,sanming,26.2486,117.6186,25.56,91,76,0.55,CN,1687905429
389,port lincoln,-34.7333,135.8667,11.5,69,25,4.54,AU,1687905429
390,keyser,39.4409,-78.9739,23.47,75,66,4.34,US,1687905429
391,araguaina,-7.1911,-48.2072,27.37,41,37,1.78,BR,1687905304
392,barra de santo antonio,-9.4047,-35.5072,23.6,82,31,4.39,BR,1687905429
393,kisangani,0.5167,25.2,21.61,87,28,0.12,CD,1687905429
394,rongelap,11.1635,166.8941,27.98,81,99,7.56,MH,1687905429
395,taro,-8.3862,115.28,20.0,94,80,0.52,ID,1687905430
396,poronaysk,49.2167,143.1167,15.51,97,100,2.54,RU,1687905430
397,iskateley,67.6803,53.1512,5.79,89,100,3.48,RU,1687905430
398,xunchang,28.4543,104.715,26.07,86,100,1.13,CN,1687905430
399,danshui,22.7984,114.4672,26.89,86,87,1.89,CN,1687905430
400,pastavy,55.1168,26.8326,13.68,91,100,2.6,BY,1687905430
401,chibougamau,49.9168,-74.3659,18.79,94,100,3.09,CA,1687905430
402,walvis bay,-22.9575,14.5053,13.94,100,0,3.09,NA,1687905431
403,goderich,43.7501,-81.7165,17.17,88,100,7.2,CA,1687905200
404,nouadhibou,20.931,-17.0347,21.99,88,20,8.23,MR,1687905431
405,siverskiy,59.3544,30.0783,14.42,76,72,1.42,RU,1687905431
406,yaren,-0.5472,166.916,27.24,77,100,2.52,NR,1687905431
407,kailua-kona,19.6406,-155.9956,29.04,76,40,4.63,US,1687905432
408,merizo village,13.2658,144.6691,29.99,87,96,5.94,GU,1687905432
409,mount gambier,-37.8333,140.7667,8.91,92,100,2.89,AU,1687905432
410,kozloduy,43.7833,23.7333,20.01,75,19,3.62,BG,1687905432
411,wanning,18.8003,110.3967,27.41,85,59,1.42,CN,1687905432
412,vanimo,-2.6741,141.3028,26.84,80,69,2.98,PG,1687905432
413,vitebsk,55.1905,30.2033,11.26,93,64,2.19,BY,1687905392
414,caburan,5.9181,125.6411,27.59,74,76,0.94,PH,1687905432
415,xiazhuang,34.9161,118.6389,27.15,67,98,2.16,CN,1687905433
416,qamdo,31.1667,97.2333,6.89,68,97,0.87,CN,1687905433
417,flin flon,54.7682,-101.865,22.91,60,75,2.57,CA,1687905168
418,deder,9.3167,41.45,13.52,88,75,3.57,ET,1687905433
419,rauco,-34.9267,-71.3187,13.23,79,0,3.09,CL,1687905433
420,nakamura,32.9833,132.9333,26.94,76,91,0.49,JP,1687905433
421,vondrozo,-22.8167,47.2833,13.59,90,27,1.27,MG,1687905201
422,avarua,-21.2078,-159.775,25.03,83,100,4.63,CK,1687905433
423,brezina,33.0989,1.2608,29.16,17,5,2.77,DZ,1687905434
424,atchison,39.563,-95.1216,31.07,50,78,3.58,US,1687905361
425,kargil,34.5667,76.1,11.73,63,18,2.45,IN,1687905434
426,grand-bassam,5.2118,-3.7388,25.98,78,22,3.58,CI,1687905434
427,turpan,42.9333,89.1667,28.14,18,8,0.5,CN,1687905434
428,tianfu,37.1936,122.0511,25.8,76,65,2.46,CN,1687905434
429,menaka,15.9182,2.4022,32.95,40,80,7.95,ML,1687905435
430,onega,63.9061,38.1404,11.62,83,58,2.48,RU,1687905435
431,luwuk,-0.9516,122.7875,26.53,81,14,0.98,ID,1687905435
432,moyynkum,44.2914,72.9469,22.58,26,3,4.04,KZ,1687905435
433,louisville,38.2542,-85.7594,28.37,56,75,5.14,US,1687905362
434,luganville,-15.5333,167.1667,23.76,60,8,2.5,VU,1687905435
435,ad darb,17.7229,42.2526,34.39,55,100,1.93,SA,1687905436
436,arraial do cabo,-22.9661,-42.0278,23.92,69,0,5.66,BR,1687905436
437,grand falls-windsor,48.9332,-55.6649,14.72,87,92,1.34,CA,1687905436
438,karratha,-20.7377,116.8463,13.24,44,0,8.92,AU,1687905165
439,maxixe,-23.8597,35.3472,18.21,79,0,2.34,MZ,1687905436
440,tirebolu,41.0069,38.8139,20.35,74,0,2.65,TR,1687905436
441,sumbe,-11.2061,13.8437,18.54,87,50,2.52,AO,1687905436
442,nema,57.5067,50.5011,12.5,81,9,1.1,RU,1687905437
443,tadine,-21.55,167.8833,22.46,55,23,7.2,NC,1687905437
444,happy valley-goose bay,53.3168,-60.3315,21.17,56,75,8.75,CA,1687905437
445,boca do acre,-8.7522,-67.3978,27.08,58,14,0.42,BR,1687905437
446,semey,50.4111,80.2275,16.73,56,31,4.39,KZ,1687905437
447,barmer,25.75,71.3833,30.38,64,97,6.45,IN,1687905437
448,port hedland,-20.3167,118.5667,10.03,50,0,3.6,AU,1687905437
449,vangaindrano,-23.35,47.6,16.01,90,6,1.9,MG,1687905437
450,bikenibeu village,1.3673,173.1241,25.98,89,100,3.09,KI,1687905438
451,tambov,52.7317,41.4339,13.11,97,100,5.48,RU,1687905438
452,rock falls,41.7798,-89.689,26.99,52,0,2.06,US,1687905438
453,puerto baquerizo moreno,-0.9,-89.6,27.55,69,40,5.66,EC,1687905438
454,broken hill,-31.95,141.4333,10.09,97,100,5.39,AU,1687905438
455,ulladulla,-35.35,150.4667,11.85,64,100,2.06,AU,1687905438
456,magadan,59.5667,150.8,13.17,81,58,2.0,RU,1687905438
457,santiago de cao,-7.9589,-79.2392,23.07,78,100,5.14,PE,1687905438
458,baise city,23.8997,106.6133,24.83,95,66,1.43,CN,1687905438
459,kalifornsky,60.4183,-151.29,11.19,93,75,6.17,US,1687905439
460,vereshchagino,58.0789,54.6557,11.08,83,49,1.82,RU,1687905439
461,forio,40.7342,13.8646,24.18,90,0,0.45,IT,1687905439
462,zambezi,-13.5432,23.1047,13.26,39,9,1.9,ZM,1687905439
463,malvan,16.0667,73.4667,27.25,83,100,6.2,IN,1687905439
464,comal,29.8169,-98.3003,40.01,31,0,1.34,US,1687905439
465,chistopol',55.3631,50.6424,14.34,73,61,1.17,RU,1687905440
466,brisas de zicatela,15.8369,-97.0419,32.29,55,20,5.14,MX,1687905440
467,cochrane,51.1834,-114.4687,26.41,43,20,5.66,CA,1687905206
468,san pedro pochutla,15.7333,-96.4667,32.06,69,80,2.3,MX,1687905440
469,molina,-35.1167,-71.2833,12.85,79,0,3.09,CL,1687905441
470,sao felix do xingu,-6.6447,-51.995,23.88,56,2,1.28,BR,1687905441
471,kupang,-10.1667,123.5833,24.32,94,20,1.54,ID,1687905441
472,juan griego,11.0817,-63.9655,30.07,70,100,2.57,VE,1687905441
473,porto belo,-27.1578,-48.5531,19.97,100,0,2.73,BR,1687905441
474,vorotynsk,54.4283,36.0465,13.4,96,100,4.49,RU,1687905441
475,la ronge,55.1001,-105.2842,21.14,49,75,4.12,CA,1687905216
476,labasa,-16.4167,179.3833,26.63,64,84,3.44,FJ,1687905442
477,iquitos,-3.7481,-73.2472,31.02,66,40,1.03,PE,1687905442
478,fort st. john,56.2499,-120.8529,26.94,39,75,3.09,CA,1687905442
479,darwin,-12.4611,130.8418,23.99,88,0,1.54,AU,1687905442
480,puerto rico,-26.796,-55.024,16.3,87,0,1.38,AR,1687905442
481,edmundston,47.3737,-68.3251,22.13,84,100,6.69,CA,1687905371
482,palangkaraya,-2.2,113.8333,23.28,93,88,0.62,ID,1687905443
483,tha khanon,9.0302,98.9529,24.6,94,93,1.56,TH,1687905443
484,howard springs,-12.497,131.047,23.95,67,59,2.43,AU,1687905443
485,rawson,-43.3002,-65.1023,8.78,58,45,3.39,AR,1687905443
486,kiuruvesi,63.65,26.6167,13.41,94,92,0.97,FI,1687905443
487,aleg,17.0481,-13.9209,28.25,45,14,7.79,MR,1687905443
488,krivosheino,57.3431,83.9261,13.34,98,100,4.04,RU,1687905443
489,queenstown,-31.8976,26.8753,9.62,92,100,1.01,ZA,1687905162
490,vila velha,-20.3297,-40.2925,22.75,87,0,2.06,BR,1687905444
491,alexandria,31.2156,29.9553,23.3,78,0,3.62,EG,1687905421
492,natal,-5.795,-35.2094,25.12,94,40,3.6,BR,1687905216
493,emerald,-23.5333,148.1667,20.71,70,97,2.1,AU,1687905444
494,pervomayskoye,43.919,46.7102,20.67,76,88,2.77,RU,1687905444
495,bam,29.106,58.357,31.68,29,42,3.12,IR,1687905445
496,batticaloa,7.7102,81.6924,26.69,81,97,5.48,LK,1687905445
497,fuling,29.7022,107.3919,25.42,85,100,1.9,CN,1687905445
498,bonthe,7.5264,-12.505,25.08,84,100,4.82,SL,1687905445
499,kerema,-7.9631,145.7785,26.39,79,73,0.57,PG,1687905445
500,gornozavodsk,58.3758,58.3211,8.54,92,11,0.89,RU,1687905445
501,mount pearl,47.5166,-52.7813,9.62,89,75,7.2,CA,1687905445
502,sicuani,-14.2694,-71.2261,8.88,23,0,0.97,PE,1687905446
503,quillacollo,-17.4,-66.2833,21.04,10,0,1.54,BO,1687905446
504,shiguai,40.7058,110.2856,18.45,64,64,0.79,CN,1687905446
505,al bardiyah,31.7561,25.0865,23.41,89,0,5.06,LY,1687905447
506,zhangye,38.9342,100.4517,19.02,30,61,1.06,CN,1687905447
507,dwarka,22.2394,68.9678,27.99,86,95,7.96,IN,1687905447
508,primero de mayo,-32.2552,-58.4228,13.64,89,100,6.48,AR,1687905447
509,tocopilla,-22.092,-70.1979,16.81,79,22,0.91,CL,1687905448
510,sault ste. marie,46.5168,-84.3333,20.16,56,0,5.66,CA,1687905233
511,sitka,57.0531,-135.33,15.94,82,75,2.57,US,1687905179
512,illapel,-31.6308,-71.1653,13.93,59,100,0.81,CL,1687905448
513,shemysheyka,52.892,45.3928,13.58,69,100,2.83,RU,1687905448
514,kimbe,-5.5502,150.1429,27.61,64,35,2.66,PG,1687905448
515,le port,-20.9373,55.2919,22.16,72,62,4.21,RE,1687905448
516,charlottetown,46.2352,-63.1267,23.64,89,75,7.72,CA,1687905310
517,abu jibeha,11.4562,31.2285,25.47,66,79,2.18,SD,1687905449
518,kuraymah,18.55,31.85,32.09,11,6,5.98,SD,1687905449
519,kota kinabalu,5.9749,116.0724,25.99,78,20,2.57,MY,1687905449
520,boa vista,2.8197,-60.6733,26.99,78,40,2.06,BR,1687905449
521,puerto ayacucho,5.6639,-67.6236,23.23,96,100,1.08,VE,1687905449
522,cabedelo,-6.9811,-34.8339,25.37,86,9,5.16,BR,1687905450
523,visby,57.6409,18.296,17.12,94,64,3.6,SE,1687905450
524,salinas,36.6777,-121.6555,23.45,70,75,7.72,US,1687905450
525,prieska,-29.6641,22.7474,8.16,78,23,0.84,ZA,1687905450
526,sittwe,20.15,92.9,26.34,88,100,3.1,MM,1687905450
527,ciudad lazaro cardenas,17.9583,-102.2,30.52,68,66,4.74,MX,1687905450
528,copala,16.65,-98.9833,30.28,63,9,3.49,MX,1687905450
529,kittila,67.6647,24.8936,15.08,82,0,1.03,FI,1687905451
530,tazacorte,28.629,-17.9293,23.54,88,0,1.54,ES,1687905451
531,santa elena de uairen,4.6167,-61.1333,20.59,92,72,1.09,VE,1687905451
532,touros,-5.1989,-35.4608,24.78,85,13,5.24,BR,1687905451
533,pacasmayo,-7.4006,-79.5714,22.31,76,17,7.26,PE,1687905451
534,teruel,40.6667,-0.6667,17.84,73,39,0.85,ES,1687905227
535,kalmunai,7.4167,81.8167,25.74,87,99,6.72,LK,1687905451
536,minot air force base,48.4209,-101.3391,28.1,53,40,4.63,US,1687905395
537,alaghsas,17.0187,8.0168,34.67,13,99,4.19,NE,1687905452
538,mabaruma,8.2,-59.7833,24.33,97,95,1.65,GY,1687905452
539,shahr-e babak,30.1165,55.1186,25.9,20,11,0.92,IR,1687905452
540,goronyo,13.4423,5.6763,31.91,41,77,5.74,NG,1687905452
541,ha'il,27.5219,41.6907,31.01,14,0,4.12,SA,1687905452
542,boguchany,58.3814,97.4531,12.42,67,0,0.52,RU,1687905452
543,togur,58.3631,82.8265,12.31,91,100,4.24,RU,1687905452
544,tianpeng,30.9866,103.9393,24.8,96,100,4.78,CN,1687905453
545,hirosaki,40.5931,140.4725,25.84,80,98,3.48,JP,1687905273
546,nar'yan-mar,67.6713,53.087,5.89,89,100,3.47,RU,1687905453
547,maine soroa,13.2114,12.0241,33.4,31,66,3.69,NE,1687905453
548,stupino,54.9008,38.0708,11.69,97,100,3.46,RU,1687905453
549,berezovyy,51.6667,135.7,23.29,61,8,1.6,RU,1687905453
550,tobol'sk,58.2,68.2667,9.27,81,38,3.39,RU,1687905407
551,perene,-10.9492,-75.2261,22.84,81,13,0.68,PE,1687905454
552,zalingei,12.9096,23.4741,27.22,44,99,1.92,SD,1687905454
553,crane,31.3974,-102.3501,41.54,7,0,11.84,US,1687905454
554,andovoranto,-18.95,49.1,17.28,91,58,2.27,MG,1687905454
555,nong ki,14.6868,102.538,24.47,88,100,1.55,TH,1687905454
556,remire-montjoly,4.9167,-52.2667,24.02,100,0,0.0,GF,1687905454
557,ad dilam,23.9915,47.1627,32.23,13,31,1.67,SA,1687905454
558,sirinhaem,-8.5908,-35.1161,23.22,90,12,3.26,BR,1687905455
559,woolgoolga,-30.1106,153.2007,11.69,41,87,3.19,AU,1687905455
560,ts'khinvali,42.2276,43.9686,15.02,90,71,1.71,GE,1687905455
561,fortuna,40.5982,-124.1573,15.37,93,100,5.14,US,1687905455
562,porto novo,6.4965,2.6036,25.9,85,100,4.42,BJ,1687905163
563,zavodskoy,43.4597,132.2922,18.77,100,100,2.0,RU,1687905455
564,holualoa,19.6228,-155.9522,27.1,75,40,4.63,US,1687905160
565,sungai raya,0.7,108.9,25.16,84,44,2.92,ID,1687905456
566,nufringen,48.6225,8.8901,18.46,62,85,1.35,DE,1687905456
567,khairpur nathan shah,27.0936,67.7337,35.9,47,92,2.98,PK,1687905456
568,lewiston orchards,46.3804,-116.9754,28.95,36,75,4.63,US,1687905456
569,chichicapa,18.4006,-97.0469,15.15,74,22,3.13,MX,1687905456
570,riosucio,5.4216,-75.7032,17.7,92,84,0.78,CO,1687905456
571,cill airne,52.05,-9.5167,16.73,98,100,1.64,IE,1687905456
572,tual,-5.6667,132.75,27.18,84,96,8.55,ID,1687905457
573,luanda,-8.8368,13.2343,22.0,78,75,4.12,AO,1687905457
574,chany,55.3121,76.7647,10.66,94,95,2.85,RU,1687905457
575,narvik,68.4384,17.4272,20.21,73,21,2.2,NO,1687905457
