City_ID,City,Lat,Lng,Max Temp,Humidity,Cloudiness,Wind Speed,Country,Date
0,mount isa,-20.7333,139.5,21.87,60,72,2.06,AU,1687823316
1,vorgashor,67.5833,63.95,7.81,82,37,3.6,RU,1687823582
2,arkhangel'sk,64.5401,40.5433,13.19,80,33,1.66,RU,1687823470
3,langsa,4.4683,97.9683,23.65,96,100,1.1,ID,1687823583
4,hamilton,39.1834,-84.5333,26.47,67,20,7.2,US,1687823583
5,kolonia town,6.964,158.206,29.0,79,100,3.09,FM,1687823583
6,kingston,17.997,-76.7936,30.53,77,40,7.2,JM,1687823583
7,bambanglipuro,-7.95,110.2833,24.45,85,47,1.84,ID,1687823470
8,san ignacio,17.1561,-89.0714,33.08,52,75,4.12,BZ,1687823584
9,nagqu,31.5,92.0,5.49,86,99,4.29,CN,1687823471
10,ushuaia,-54.8,-68.3,-2.19,74,0,3.09,AR,1687823584
11,saldanha,-33.0117,17.9442,16.03,86,35,3.62,ZA,1687823584
12,waitangi,-43.9535,-176.5597,12.68,89,100,5.36,NZ,1687823584
13,albany,42.6001,-73.9662,20.65,93,100,3.08,US,1687823584
14,rio grande,-32.035,-52.0986,24.06,91,67,3.07,BR,1687823535
15,igarka,67.4667,86.5833,11.48,67,9,2.77,RU,1687823471
16,tual,-5.6667,132.75,26.97,83,86,4.43,ID,1687823471
17,invercargill,-46.4,168.35,9.47,87,7,0.57,NZ,1687823471
18,yellowknife,62.456,-114.3525,21.29,46,20,5.66,CA,1687823472
19,urzhar,47.093,81.6294,19.07,33,75,2.04,KZ,1687823472
20,qaqortoq,60.7167,-46.0333,4.47,87,100,4.27,GL,1687823256
21,olonkinbyen,70.9221,-8.7187,6.39,87,50,5.36,SJ,1687823472
22,grytviken,-54.2811,-36.5092,-3.2,95,100,1.8,GS,1687823472
23,malango,-2.9627,119.9001,22.37,90,67,0.19,ID,1687823472
24,lagoa,39.05,-27.9833,19.5,85,0,3.96,PT,1687823472
25,glasgow,55.8652,-4.2576,13.9,89,92,2.06,GB,1687823403
26,uturoa,-16.7333,-151.4333,27.24,69,8,7.43,PF,1687823472
27,port mathurin,-19.6833,63.4167,22.61,60,69,5.66,MU,1687823473
28,punta arenas,-53.15,-70.9167,1.06,75,75,6.69,CL,1687823473
29,isafjordur,66.0755,-23.124,11.2,74,54,2.44,IS,1687823473
30,puerto natales,-51.7236,-72.4875,1.95,98,100,2.97,CL,1687823473
31,vorkuta,67.5,64.0,8.2,82,38,3.59,RU,1687823348
32,anadyr,64.75,177.4833,12.28,76,100,7.0,RU,1687823474
33,st. john's,47.5649,-52.7093,7.6,86,20,3.09,CA,1687823233
34,djenne,13.9061,-4.5533,31.31,51,72,3.64,ML,1687823474
35,edinburgh of the seven seas,-37.0676,-12.3116,15.76,93,100,15.62,SH,1687823474
36,kodiak,57.79,-152.4072,10.73,76,100,6.17,US,1687823185
37,flin flon,54.7682,-101.865,21.91,37,20,3.09,CA,1687823211
38,lake oswego,45.4207,-122.6706,28.92,45,40,5.14,US,1687823214
39,saipan,15.1355,145.701,29.8,100,40,6.69,MP,1687823474
40,port-aux-francais,-49.35,70.2167,2.64,99,100,14.89,TF,1687823189
41,college,64.8569,-147.8028,21.44,47,75,1.54,US,1687823188
42,puerto ayora,-0.7393,-90.3518,25.31,91,74,2.24,EC,1687823475
43,porto velho,-8.7619,-63.9039,26.03,73,0,0.51,BR,1687823475
44,klaksvik,62.2266,-6.589,11.51,89,49,1.83,FO,1687823475
45,west island,-12.1568,96.8225,25.99,69,40,6.17,CC,1687823475
46,sakaiminato,35.55,133.2333,27.99,78,75,4.12,JP,1687823475
47,gannan,47.9147,123.5031,21.09,77,100,3.63,CN,1687823476
48,lesnoy,57.6198,63.0784,7.97,83,88,3.71,RU,1687823476
49,talnakh,69.4865,88.3972,12.34,57,12,2.17,RU,1687823476
50,beloretsk,53.9631,58.3981,6.65,95,97,2.29,RU,1687823476
51,tralee,52.2704,-9.7026,14.2,93,100,3.13,IE,1687823476
52,inirida,3.8653,-67.9239,23.78,96,97,0.83,CO,1687823476
53,enewetak,11.3474,162.3373,28.01,79,98,8.86,MH,1687823477
54,port elizabeth,-33.918,25.5701,14.16,89,100,5.66,ZA,1687823477
55,shar,49.5886,81.0453,19.14,29,94,6.95,KZ,1687823477
56,de aar,-30.6497,24.0123,11.21,42,67,3.81,ZA,1687823477
57,teruel,40.6667,-0.6667,18.29,61,40,1.11,ES,1687823477
58,val-d'or,48.1002,-77.7828,21.05,78,75,1.54,CA,1687823477
59,bilibino,68.0546,166.4372,17.94,45,4,9.02,RU,1687823477
60,araioses,-2.89,-41.9031,24.69,90,42,3.59,BR,1687823478
61,yangjiang,21.85,111.9667,27.77,80,61,0.59,CN,1687823462
62,'ain el melh,34.8415,4.1638,25.06,33,0,1.07,DZ,1687823478
63,labytnangi,66.6572,66.4183,12.09,87,52,1.85,RU,1687823341
64,coquimbo,-29.9533,-71.3436,13.85,100,100,4.12,CL,1687823278
65,lebu,-37.6167,-73.65,10.93,94,100,7.3,CL,1687823478
66,labrador city,52.9463,-66.9114,20.95,40,75,7.72,CA,1687823187
67,constantia,44.1833,28.65,20.39,63,41,5.46,RO,1687823479
68,castillos,-34.1667,-53.8333,15.3,97,100,2.26,UY,1687823479
69,paraparaumu,-40.9167,175.0167,13.47,88,100,3.49,NZ,1687823479
70,lubang,13.8584,120.124,28.4,75,60,3.13,PH,1687823479
71,itoman,26.1247,127.6694,30.01,79,40,6.17,JP,1687823479
72,adamstown,-25.066,-130.1015,21.72,78,5,6.52,PN,1687823480
73,longyearbyen,78.2186,15.6401,5.91,93,75,5.66,SJ,1687823253
74,mezhdurechenskiy,59.6,65.9333,8.86,75,1,2.01,RU,1687823480
75,bandarbeyla,9.4942,50.8122,24.66,76,35,12.63,SO,1687823480
76,tolanaro,-25.0319,46.9987,18.04,72,20,3.09,MG,1687823480
77,bethel,41.3712,-73.414,23.86,85,100,1.54,US,1687823481
78,guarapari,-20.6667,-40.4975,20.5,91,4,3.68,BR,1687823481
79,port alfred,-33.5906,26.891,13.99,92,100,3.58,ZA,1687823481
80,minas de marcona,-15.2119,-75.1103,12.83,86,11,5.93,PE,1687823481
81,poronaysk,49.2167,143.1167,18.25,84,43,3.49,RU,1687823243
82,saint-philippe,-21.3585,55.7679,17.77,63,0,2.71,RE,1687823255
83,hadibu,12.65,54.0333,25.74,80,60,12.37,YE,1687823481
84,huarmey,-10.0681,-78.1522,21.1,82,6,4.91,PE,1687823482
85,namibe,-15.1961,12.1522,15.54,80,2,5.07,AO,1687823482
86,georgetown,5.4112,100.3354,26.96,89,40,0.0,MY,1687823241
87,timimoun,29.2639,0.231,34.21,24,31,3.6,DZ,1687823482
88,howard springs,-12.497,131.047,26.95,58,94,3.13,AU,1687823482
89,papatowai,-46.5619,169.4708,11.32,85,98,2.01,NZ,1687823482
90,nemuro,43.3236,145.575,14.97,92,31,6.97,JP,1687823482
91,whitehorse,60.7161,-135.0538,21.43,35,100,3.09,CA,1687823420
92,cedeira,43.6797,-8.0209,19.43,84,49,8.07,ES,1687823483
93,weno,7.4515,151.8468,29.97,84,100,3.6,FM,1687823268
94,kokshetau,53.2775,69.3883,13.24,89,87,3.86,KZ,1687823483
95,khunti,23.0833,85.2833,23.06,94,100,2.92,IN,1687823483
96,dudinka,69.4058,86.1778,12.57,63,90,3.22,RU,1687823483
97,la passe,45.5549,-0.8967,18.88,81,51,4.35,FR,1687823483
98,flying fish cove,-10.4217,105.6791,24.82,78,75,5.14,CX,1687823483
99,badiyah,22.45,58.8,26.31,80,81,1.26,OM,1687823483
100,jamestown,42.097,-79.2353,20.01,82,75,3.13,US,1687823364
101,east london,-33.0153,27.9116,15.39,82,100,6.59,ZA,1687823484
102,blackmans bay,-43.0167,147.3167,10.41,66,93,3.68,AU,1687823191
103,i-n-salah,27.1935,2.4607,32.83,28,96,1.68,DZ,1687823484
104,anaconda,46.1285,-112.9423,16.55,74,89,2.85,US,1687823484
105,khandyga,62.6667,135.6,28.98,43,2,1.17,RU,1687823484
106,iskateley,67.6803,53.1512,8.07,84,99,2.08,RU,1687823279
107,nar'yan-mar,67.6713,53.087,8.14,84,99,1.98,RU,1687823251
108,tiksi,71.6872,128.8694,13.01,48,7,4.56,RU,1687823484
109,utrik,11.2278,169.8474,28.15,80,70,8.25,MH,1687823485
110,bowen,-20.0167,148.2333,22.77,71,35,1.96,AU,1687823485
111,tazovsky,67.4667,78.7,8.51,74,66,0.53,RU,1687823333
112,ondjiva,-17.0667,15.7333,17.02,39,0,3.09,AO,1687823485
113,island harbour,50.724,-1.2758,16.1,75,97,0.45,GB,1687823213
114,gambiran satu,-8.3939,114.1464,23.29,90,64,1.12,ID,1687823485
115,tukrah,32.5341,20.5791,22.88,88,23,4.72,LY,1687823485
116,roscommon,53.6333,-8.1833,13.95,85,100,3.84,IE,1687823486
117,kavieng,-2.5744,150.7967,28.34,75,99,1.12,PG,1687823231
118,klyuchi,52.2667,79.1667,17.47,44,100,4.97,RU,1687823204
119,pariaman,-0.619,100.12,24.03,86,90,1.39,ID,1687823486
120,ilulissat,69.2167,-51.1,12.01,54,20,7.72,GL,1687823486
121,batang,-6.4846,110.7083,25.7,77,13,4.52,ID,1687823486
122,ar ruways,24.1103,52.7306,28.97,77,61,3.2,AE,1687823487
123,fendou,46.65,124.8667,23.15,72,100,2.2,CN,1687823487
124,colonia,50.9333,6.95,17.19,69,0,0.51,DE,1687823222
125,al jubayl,27.0112,49.6583,33.01,33,27,5.29,SA,1687823487
126,inarajan village,13.2736,144.7484,30.55,88,98,7.7,GU,1687823487
127,dompu,-8.5356,118.4622,24.35,93,73,0.96,ID,1687823487
128,adrar,20.5022,-10.0711,31.88,11,0,3.53,MR,1687823487
129,ust-nera,64.5667,143.2,25.16,49,93,1.24,RU,1687823487
130,hermanus,-34.4187,19.2345,14.89,83,84,10.87,ZA,1687823488
131,mount pleasant,32.7941,-79.8626,30.08,76,0,5.66,US,1687823280
132,morant bay,17.8815,-76.4093,30.79,84,76,2.75,JM,1687823488
133,bochum,51.4833,7.2167,16.32,66,64,2.24,DE,1687823488
134,vadso,70.0744,29.7487,9.49,88,43,2.57,NO,1687823488
135,ribeira grande,38.5167,-28.7,19.87,88,31,2.24,PT,1687823488
136,crane,31.3974,-102.3501,41.76,9,24,9.15,US,1687823279
137,san jose de jachal,-30.2406,-68.7469,15.11,37,0,0.82,AR,1687823489
138,rovaniemi,66.5,25.7167,14.67,88,0,3.09,FI,1687823489
139,manokwari,-0.8667,134.0833,28.4,73,47,4.85,ID,1687823208
140,namdrik,5.5994,168.1028,27.87,81,99,6.38,MH,1687823489
141,palmer,42.1584,-72.3287,25.75,72,75,3.09,US,1687823489
142,wainwright,52.839,-110.8572,23.79,49,32,2.49,CA,1687823489
143,kargasok,59.0556,80.8572,10.16,83,100,3.29,RU,1687823352
144,panjab,34.388,67.0233,13.6,58,5,1.27,AF,1687823489
145,skovorodino,53.9833,123.9167,23.52,48,22,3.61,RU,1687823490
146,galliano,29.4422,-90.2992,33.0,66,0,5.14,US,1687823490
147,carlsbad,33.1581,-117.3506,29.59,68,0,4.63,US,1687823243
148,taunggyi,20.7833,97.0333,18.13,93,90,1.16,MM,1687823490
149,lukhovitsy,54.9728,39.0361,13.57,87,100,2.5,RU,1687823490
150,bor,56.3567,44.0669,8.96,75,0,1.5,RU,1687823490
151,rudnichnyy,59.617,52.4703,12.42,81,96,1.79,RU,1687823490
152,polyarnyy,69.1989,33.4478,7.48,90,84,1.72,RU,1687823261
153,pandan,14.0453,124.1694,28.91,75,71,1.32,PH,1687823490
154,ayorou,14.7308,0.9174,33.47,45,69,2.05,NE,1687823491
155,chonchi,-42.6128,-73.8092,6.73,94,100,1.52,CL,1687823491
156,atafu village,-8.5421,-172.5159,28.62,78,52,7.56,TK,1687823491
157,iquique,-20.2208,-70.1431,19.02,78,22,1.71,CL,1687822846
158,kirakira,-10.4544,161.9205,28.02,61,83,3.49,SB,1687823491
159,leo,11.1,-2.1,24.44,85,67,2.65,BF,1687823491
160,pont rouge,48.8833,-72.0825,20.06,62,84,7.28,CA,1687823491
161,sisimiut,66.9395,-53.6735,5.54,72,43,4.38,GL,1687823491
162,keflavik,64.0049,-22.5624,11.95,93,75,4.63,IS,1687823491
163,freetown,8.484,-13.2299,25.84,83,75,2.57,SL,1687823492
164,tura,25.5198,90.2201,23.87,95,97,2.4,IN,1687823492
165,san juan,-31.5375,-68.5364,14.27,57,2,4.73,AR,1687823492
166,belomorsk,64.5232,34.7668,16.0,60,60,2.24,RU,1687823492
167,carlos chagas,-17.7031,-40.7664,20.56,87,75,1.94,BR,1687823492
168,callao,-12.0667,-77.15,21.16,73,100,8.23,PE,1687823492
169,novyy turtkul',41.55,61.0167,21.95,28,0,3.11,UZ,1687823492
170,pul-e khumri,35.9446,68.7151,23.88,26,3,0.48,AF,1687823493
171,ribeira brava,32.65,-17.0667,26.35,55,1,3.68,PT,1687823493
172,vilyuchinsk,52.9306,158.4028,23.15,68,24,1.68,RU,1687823493
173,stanley,54.868,-1.6985,12.66,83,0,3.6,GB,1687823493
174,peace river,56.2501,-117.286,25.17,50,75,2.57,CA,1687823278
175,pingzhuang,42.0372,119.2889,25.85,41,93,1.2,CN,1687823493
176,massawa,15.6097,39.45,32.71,53,47,2.02,ER,1687823494
177,margaret river,-33.95,115.0667,10.84,78,89,1.41,AU,1687823494
178,udachny,66.4167,112.4,16.92,47,41,5.14,RU,1687823494
179,kargil,34.5667,76.1,10.51,68,21,2.79,IN,1687823397
180,kailua-kona,19.6406,-155.9956,28.98,79,40,6.17,US,1687823237
181,avarua,-21.2078,-159.775,27.03,78,0,1.54,CK,1687823494
182,thomaston,32.8882,-84.3266,31.42,60,40,4.63,US,1687823494
183,thompson,55.7435,-97.8558,20.09,30,40,1.54,CA,1687823495
184,kinablangan,7.6947,126.5503,28.39,73,99,0.79,PH,1687823495
185,hua hin,12.5707,99.9588,31.11,78,20,2.57,TH,1687823495
186,riosucio,5.4216,-75.7032,14.77,98,87,0.68,CO,1687823384
187,elk city,35.412,-99.4043,30.99,45,0,4.63,US,1687823495
188,saynshand,44.8824,110.1163,24.12,24,75,7.22,MN,1687823495
189,waingapu,-9.6567,120.2641,26.36,76,43,1.66,ID,1687823495
190,karatuzskoye,53.6072,92.8667,11.33,77,18,1.35,RU,1687823495
191,la foa,-21.7108,165.8276,21.92,55,21,2.76,NC,1687823496
192,chadron,42.8294,-102.9999,25.86,51,20,4.63,US,1687823496
193,puerto baquerizo moreno,-0.9,-89.6,24.54,79,76,4.67,EC,1687823496
194,wailua homesteads,22.0669,-159.378,29.24,75,20,8.23,US,1687823235
195,laela,-8.5667,32.05,11.4,84,17,1.68,TZ,1687823496
196,mount pearl,47.5166,-52.7813,7.14,86,20,3.09,CA,1687823330
197,carnarvon,-24.8667,113.6333,10.96,62,0,10.16,AU,1687823496
198,levuka,50.1834,-105.4011,25.85,36,75,4.12,CA,1687823496
199,bredasdorp,-34.5322,20.0403,13.21,89,78,8.78,ZA,1687823497
200,panaba,21.2833,-88.2667,28.9,66,64,3.93,MX,1687823497
201,maragogi,-9.0122,-35.2225,23.82,88,63,5.04,BR,1687823454
202,anaco,9.4389,-64.4728,26.27,74,83,1.29,VE,1687823497
203,petropavlovsk-kamchatsky,53.0452,158.6483,22.33,56,0,2.0,RU,1687823497
204,kununurra,-15.7667,128.7333,24.99,61,88,3.09,AU,1687823355
205,yomju-up,39.8933,124.5981,22.81,83,89,3.52,KP,1687823497
206,iqaluit,63.7506,-68.5145,5.85,75,75,4.12,CA,1687823497
207,homer,59.6425,-151.5483,12.24,71,100,3.58,US,1687823497
208,ciudad constitucion,25.0369,-111.6644,32.19,23,5,8.05,MX,1687823498
209,hawaiian paradise park,19.5933,-154.9731,27.73,72,75,5.66,US,1687823498
210,wenatchee,47.4235,-120.3103,31.46,29,0,2.24,US,1687823498
211,torghay,49.6339,63.4981,12.93,76,52,6.05,KZ,1687823498
212,sena madureira,-9.0656,-68.6569,26.24,68,94,0.83,BR,1687823498
213,lucapa,-8.4192,20.7447,18.39,40,67,1.13,AO,1687823498
214,piwniczna-zdroj,49.4406,20.7142,13.87,76,21,2.36,PL,1687823499
215,usogorsk,63.4106,48.6872,11.55,74,35,1.75,RU,1687823499
216,truro,50.2653,-5.0544,16.42,82,20,3.09,GB,1687823499
217,codrington,-38.2667,141.9667,9.61,90,100,4.73,AU,1687823253
218,ca mau,9.1769,105.15,28.31,77,91,2.88,VN,1687823499
219,agropoli,40.3469,14.9966,20.6,79,0,1.63,IT,1687823361
220,aznalcollar,37.5491,-6.3166,29.77,31,0,1.34,ES,1687823499
221,port saint john's,-31.6229,29.5448,17.07,89,100,4.77,ZA,1687823499
222,port blair,11.6667,92.75,27.02,89,75,0.51,IN,1687823500
223,sitka,57.0531,-135.33,14.94,88,100,5.66,US,1687823500
224,colonia menno,-22.3667,-59.8167,24.09,41,0,4.81,PY,1687823500
225,dhidhdhoo,6.8833,73.1,25.88,89,100,9.66,MV,1687823500
226,nogliki,51.8333,143.1667,14.69,86,100,4.06,RU,1687823412
227,lompoc,34.6391,-120.4579,23.16,76,75,9.26,US,1687823500
228,kulhudhuffushi,6.6221,73.07,26.0,87,100,9.69,MV,1687823500
229,buala,-8.145,159.5921,27.94,69,91,5.44,SB,1687823501
230,mbanza-ngungu,-5.25,14.8667,17.71,98,29,1.99,CD,1687823501
231,greymouth,-42.4667,171.2,11.99,82,76,0.95,NZ,1687823501
232,susuman,62.7833,148.1667,23.54,54,41,1.57,RU,1687823332
233,margate,51.3813,1.3862,15.73,78,100,0.89,GB,1687823501
234,tongliao,43.6125,122.2653,23.84,62,100,3.49,CN,1687823501
235,saint-francois,46.4154,3.9054,14.82,82,41,1.03,FR,1687823501
236,ancud,-41.8697,-73.8203,8.32,90,100,4.44,CL,1687823501
237,puerto deseado,-47.7503,-65.8938,4.98,90,100,3.52,AR,1687823485
238,cadale,2.7603,46.3222,25.11,81,58,7.56,SO,1687823263
239,wolgast,54.05,13.7667,16.01,100,96,7.7,DE,1687823502
240,hinton,53.4001,-117.5857,24.42,34,99,0.64,CA,1687823502
241,bigadic,39.3925,28.1311,20.55,91,0,1.73,TR,1687823503
242,casablanca,33.5928,-7.6192,32.12,64,27,2.49,MA,1687823383
243,dzhubga,44.3211,38.7039,21.55,88,3,2.59,RU,1687823503
244,new norfolk,-42.7826,147.0587,11.07,70,99,2.89,AU,1687823504
245,devonport,-41.1667,146.35,11.12,76,56,3.74,AU,1687823504
246,hithadhoo,-0.6,73.0833,27.84,74,99,3.65,MV,1687823267
247,mount gambier,-37.8333,140.7667,9.07,96,100,2.58,AU,1687823504
248,machico,32.7,-16.7667,26.35,57,0,10.8,PT,1687823504
249,thabazimbi,-24.5917,27.4116,12.4,39,0,1.62,ZA,1687823504
250,san andres,12.5847,-81.7006,29.01,79,75,2.57,CO,1687823387
251,pacific grove,36.6177,-121.9166,21.42,81,100,5.14,US,1687823504
252,dongargaon,20.9667,80.85,24.56,91,100,5.86,IN,1687823505
253,la ronge,55.1001,-105.2842,20.14,42,75,4.12,CA,1687823285
254,ulladulla,-35.35,150.4667,13.57,51,28,2.13,AU,1687823505
255,nsanje,-16.92,35.262,14.96,79,0,0.37,MW,1687823505
256,lorengau,-2.0226,147.2712,28.87,76,92,5.15,PG,1687823505
257,heniches'k,46.1759,34.8034,18.98,76,32,6.62,UA,1687823505
258,portland,45.5234,-122.6762,29.21,46,40,5.14,US,1687823242
259,santa ana,33.7456,-117.8678,30.91,53,0,5.66,US,1687823352
260,lerwick,60.1545,-1.1494,12.0,93,32,4.47,GB,1687823506
261,nizao,18.25,-70.2,31.04,80,67,2.81,DO,1687823506
262,cidade velha,14.9167,-23.6167,25.26,65,20,3.09,CV,1687823506
263,ciudad lazaro cardenas,17.9583,-102.2,29.75,71,99,5.37,MX,1687823350
264,sola,-13.8833,167.55,24.92,66,100,6.99,VU,1687823506
265,alofi,-19.0595,-169.9187,26.94,65,40,3.09,NU,1687823325
266,kampong speu,11.5,104.3333,26.24,81,100,1.14,KH,1687823506
267,santana do ipanema,-9.3783,-37.2453,20.4,90,47,1.7,BR,1687823507
268,aasiaat,68.7098,-52.8699,3.56,89,97,2.67,GL,1687823507
269,shchigry,51.8755,36.9043,12.9,98,100,4.83,RU,1687823507
270,calama,-22.4667,-68.9333,14.27,15,0,3.09,CL,1687823507
271,forbes,-33.3833,148.0167,13.84,69,74,0.95,AU,1687823507
272,uvel'skiy,54.4446,61.3574,9.86,90,100,9.03,RU,1687823507
273,arteche,12.2645,125.4048,26.94,87,88,0.71,PH,1687823508
274,port moresby,-9.4431,147.1797,26.33,75,93,1.81,PG,1687823242
275,mogadishu,2.0371,45.3438,25.1,82,68,6.85,SO,1687823508
276,papao,-17.75,-149.55,29.82,74,1,7.27,PF,1687823360
277,marksville,31.128,-92.0662,33.03,45,11,4.32,US,1687823509
278,lake havasu city,34.4839,-114.3224,39.34,6,0,4.63,US,1687823335
279,hachinohe,40.5,141.5,24.68,67,100,1.74,JP,1687823509
280,parabel',58.6978,81.4825,11.47,89,99,2.11,RU,1687823509
281,bamako,12.65,-8.0,27.23,78,20,2.06,ML,1687823509
282,sandnessjoen,66.0217,12.6316,17.29,77,42,8.52,NO,1687823509
283,brooks,50.5834,-111.8851,26.99,28,9,2.06,CA,1687823100
284,mata-utu,-13.2816,-176.1745,27.31,76,85,5.45,WF,1687823509
285,barcelos,41.5388,-8.6151,20.94,81,43,1.55,PT,1687823510
286,ola,59.5833,151.2833,11.72,88,98,3.05,RU,1687823303
287,fort mcmurray,56.7268,-111.381,23.77,56,0,3.6,CA,1687823510
288,vila franca do campo,37.7167,-25.4333,20.23,91,23,3.93,PT,1687823351
289,rodolfo sanchez taboada,31.7167,-116.5667,20.61,67,6,1.79,MX,1687823510
290,olinda,-8.0089,-34.8553,23.85,94,100,3.09,BR,1687823363
291,mersing,2.4312,103.8405,24.95,94,40,3.09,MY,1687823511
292,veraval,20.9,70.3667,26.69,88,100,6.19,IN,1687823511
293,avsallar,36.616,31.7806,24.48,68,0,0.36,TR,1687823511
294,kaa-khem,51.6833,94.7333,12.58,54,99,0.48,RU,1687823340
295,port lincoln,-34.7333,135.8667,12.88,76,100,2.87,AU,1687823512
296,kovdor,67.5662,30.4758,11.05,94,94,1.83,RU,1687823512
297,ta`u,-14.2336,-169.5144,27.24,76,11,6.1,AS,1687823512
298,lazaro cardenas,17.9583,-102.2,29.75,71,99,5.37,MX,1687823512
299,wenchang,30.904,118.4887,27.63,77,18,1.79,CN,1687823512
300,walvis bay,-22.9575,14.5053,13.94,94,100,2.06,NA,1687823512
301,teguise,29.0605,-13.564,22.12,88,20,1.54,ES,1687823512
302,tazacorte,28.629,-17.9293,22.86,34,20,2.57,ES,1687823245
303,karratha,-20.7377,116.8463,16.15,43,23,5.45,AU,1687823349
304,kroya,-7.6331,109.2461,24.29,87,45,2.05,ID,1687823513
305,ipero,-23.3503,-47.6886,17.42,71,0,0.1,BR,1687823513
306,vangaindrano,-23.35,47.6,14.71,85,1,1.81,MG,1687823513
307,cabo san lucas,22.8909,-109.9124,33.67,63,0,4.47,MX,1687823428
308,banda aceh,5.5577,95.3222,26.7,78,80,4.61,ID,1687823513
309,okhotsk,59.3833,143.3,14.08,84,62,1.88,RU,1687823514
310,novo aripuana,-5.1206,-60.3797,25.97,65,97,0.66,BR,1687823514
311,seydi,39.4816,62.9137,25.43,22,0,2.06,TM,1687823514
312,kloulklubed,7.0419,134.2556,29.28,73,54,3.08,PW,1687823514
313,n'dalatando,-9.2978,14.9116,14.46,97,24,1.14,AO,1687823514
314,berezovyy,51.6667,135.7,24.66,54,20,1.52,RU,1687823514
315,niteroi,-22.8833,-43.1036,23.79,66,0,2.57,BR,1687823514
316,santa maria magdalena cahuacan,19.6392,-99.4161,14.74,83,95,1.33,MX,1687823514
317,smara,26.7384,-11.6719,26.36,58,3,6.83,EH,1687823515
318,zabol,32.25,67.25,22.7,55,62,2.01,AF,1687823515
319,kimbe,-5.5502,150.1429,29.33,66,93,5.44,PG,1687823515
320,guangming,45.3333,122.7833,22.52,69,100,1.9,CN,1687823515
321,telimele,10.9167,-13.3333,22.28,99,100,0.75,GN,1687823515
322,mar del plata,-38.0023,-57.5575,11.64,67,0,2.24,AR,1687823253
323,olovyannaya,50.95,115.5667,20.81,77,97,1.09,RU,1687823515
324,camacupa,-12.0167,17.4833,12.27,47,5,0.82,AO,1687823515
325,ouesso,1.6136,16.0517,20.91,98,98,0.84,CG,1687823515
326,elliot lake,46.3834,-82.6331,18.44,93,97,4.13,CA,1687823348
327,semnan,35.5729,53.3971,25.79,26,0,1.92,IR,1687823516
328,selfoss,63.9331,-20.9971,10.58,90,54,1.89,IS,1687823516
329,rongelap,11.1635,166.8941,28.11,80,55,8.47,MH,1687823516
330,dolores,-36.3132,-57.6792,11.35,59,100,2.73,AR,1687823516
331,teknaf,20.8624,92.3058,25.52,93,100,3.96,BD,1687823516
332,oberlin,41.2939,-82.2174,21.38,89,100,5.66,US,1687823246
333,kangding,30.0513,101.9603,17.14,85,79,0.64,CN,1687823517
334,oruro,-17.9833,-67.15,6.57,13,78,3.37,BO,1687823517
335,cambria,35.5641,-121.0808,30.13,65,9,7.07,US,1687823517
336,karkira,36.9292,6.5856,21.79,76,0,2.01,DZ,1687823517
337,katsina,12.9894,7.6006,30.67,43,74,3.32,NG,1687823517
338,taro,-8.3862,115.28,21.03,83,44,0.62,ID,1687823517
339,kuching,1.55,110.3333,26.74,92,20,1.03,MY,1687823517
340,remire-montjoly,4.9167,-52.2667,26.02,94,75,1.03,GF,1687823517
341,driefontein,-27.0177,30.4498,6.19,49,0,2.01,ZA,1687823518
342,praia da vitoria,38.7333,-27.0667,21.14,88,40,3.02,PT,1687823518
343,jaru,-10.4389,-62.4664,23.83,68,0,1.09,BR,1687823518
344,serhiyivka,46.0272,30.3768,19.46,66,1,4.74,UA,1687823518
345,chui,-33.6971,-53.4616,16.73,98,92,2.33,UY,1687823518
346,bel ombre,-4.6167,55.4167,25.91,69,20,6.17,SC,1687823518
347,altai,46.3722,96.2583,7.78,52,100,1.99,MN,1687823284
348,turaif,31.6725,38.6637,23.14,27,0,7.2,SA,1687823518
349,bajil,15.0584,43.2851,30.97,63,63,0.64,YE,1687823519
350,gizo,-8.103,156.8419,27.71,62,100,7.4,SB,1687823519
351,pirawa,24.1551,76.0273,25.33,86,100,5.43,IN,1687823510
352,barra de santo antonio,-9.4047,-35.5072,22.6,85,78,5.07,BR,1687823519
353,kuala belait,4.5833,114.1833,26.09,87,83,2.61,BN,1687823519
354,nikolayevsk-on-amure,53.1406,140.73,19.67,66,84,2.32,RU,1687823519
355,box elder,41.5005,-112.8764,24.2,31,12,1.99,US,1687823519
356,la romana,18.4273,-68.9728,29.2,74,75,3.09,DO,1687823278
357,ndibene dahra,15.3338,-15.4766,25.76,69,91,6.13,SN,1687823520
358,badger,64.8,-147.5333,21.4,45,75,1.54,US,1687823520
359,thunder bay,48.4001,-89.3168,22.99,53,40,6.17,CA,1687823491
360,queenstown,-31.8976,26.8753,9.75,92,99,2.5,ZA,1687823258
361,garissa,-0.4536,39.6401,22.59,79,16,6.53,KE,1687823520
362,ormara,25.2088,64.6357,28.94,77,88,4.68,PK,1687823262
363,lata,40.1629,-8.3327,19.95,95,6,0.7,PT,1687823521
364,hammerfest,70.6634,23.6821,8.25,100,100,5.14,NO,1687823521
365,galesong,-5.3166,119.3661,24.01,78,26,1.37,ID,1687823521
366,ijui,-28.3878,-53.9147,17.93,82,0,2.66,BR,1687823522
367,puerto leguizamo,-0.1934,-74.7819,22.56,98,58,0.96,CO,1687823522
368,yur'yev-pol'skiy,56.5,39.6833,11.93,73,19,2.21,RU,1687823522
369,bereket,39.2446,55.5154,26.62,24,0,2.3,TM,1687823522
370,salekhard,66.53,66.6019,11.88,89,72,2.5,RU,1687823522
371,fale old settlement,-9.3852,-171.2468,28.41,79,67,7.8,TK,1687823523
372,boumagueur,35.5052,5.5525,25.44,45,0,4.25,DZ,1687823523
373,kapa'a,22.0752,-159.319,29.99,75,20,8.23,US,1687823313
374,angaur state,6.906,134.13,28.57,73,52,3.43,PW,1687823523
375,wynyard,-41.0,145.7167,11.1,73,65,2.28,AU,1687823523
376,taoudenni,22.6783,-3.9836,35.02,27,8,5.06,ML,1687823523
377,vernon,50.2581,-119.2691,31.74,23,18,1.03,CA,1687823523
378,bikenibeu village,1.3673,173.1241,28.98,79,75,0.51,KI,1687823290
379,jawf al maqbabah,13.8378,45.8349,28.5,49,88,1.13,YE,1687823523
380,urengoy,65.9667,78.3667,11.28,64,79,1.49,RU,1687823524
381,tervel,43.75,27.4,17.94,68,0,2.91,BG,1687823524
382,urangan,-25.3,152.9,19.55,45,73,3.91,AU,1687823524
383,puerto aysen,-45.4,-72.7,4.41,99,100,1.05,CL,1687823524
384,yanchep,-31.55,115.6833,1.07,78,0,2.62,AU,1687823524
385,laojunmiao,39.8333,97.7333,15.33,28,100,2.58,CN,1687823283
386,viedma,-40.8135,-62.9967,9.76,45,12,4.05,AR,1687823525
387,hiratacho,35.4333,132.8167,28.01,74,75,3.09,JP,1687823525
388,pisco,-13.7,-76.2167,20.03,73,0,6.17,PE,1687823443
389,kitimat,54.0524,-128.6534,28.21,55,100,3.58,CA,1687823525
390,cova figueira,14.8905,-24.2934,21.05,83,20,3.6,CV,1687823525
391,shevchenko,48.5,35.0,14.12,90,7,4.78,UA,1687823529
392,grand falls-windsor,48.9332,-55.6649,10.99,71,2,2.33,CA,1687823529
393,baruun-urt,46.6806,113.2792,18.86,55,10,4.82,MN,1687823529
394,krasnoyarsk,56.0097,92.7917,11.22,83,40,1.49,RU,1687823530
395,tutoia,-2.7619,-42.2744,25.71,85,10,4.45,BR,1687823530
396,isoka,-10.1606,32.6335,9.9,78,13,0.62,ZM,1687823530
397,afif,23.9065,42.9172,28.88,12,5,2.33,SA,1687823530
398,swan hill,-35.3378,143.5544,11.04,67,100,2.75,AU,1687823530
399,tofol,5.3248,163.0078,28.88,79,75,5.14,FM,1687823531
400,happy valley-goose bay,53.3168,-60.3315,25.17,27,75,1.54,CA,1687823531
401,as samawah,31.332,45.2944,33.34,13,0,4.69,IQ,1687823531
402,hami,42.8,93.45,20.79,36,80,4.52,CN,1687823394
403,puerto lempira,15.2667,-83.7667,26.2,90,100,3.33,HN,1687823531
404,dunaujvaros,46.9833,18.9333,17.94,69,0,2.41,HU,1687823531
405,lihue,21.9789,-159.3672,29.58,68,20,8.23,US,1687823531
406,bridgewater,44.3835,-64.5155,12.01,98,100,7.72,CA,1687823190
407,kone,-21.0595,164.8658,22.99,50,41,2.12,NC,1687823532
408,shanhaiguan,39.9988,119.7564,28.58,48,69,5.9,CN,1687823532
409,tambacounda,13.7539,-13.7586,28.29,64,98,5.4,SN,1687823532
410,markaz-e hukumat-e darweshan,31.1323,64.1934,31.2,15,85,4.96,AF,1687823532
411,san antonio oeste,-40.7319,-64.9477,11.46,49,39,3.45,AR,1687823427
412,kapuskasing,49.4169,-82.4331,16.0,72,100,3.6,CA,1687823532
413,gokwe,-18.2048,28.9349,8.0,41,0,1.75,ZW,1687823533
414,haiku-pauwela,20.9219,-156.3051,29.01,55,20,10.8,US,1687823533
415,gorgan,36.8387,54.4348,17.98,88,0,0.0,IR,1687823533
416,xinmin,41.9908,122.8253,23.83,69,100,4.22,CN,1687823533
417,kitui,-1.367,38.0106,15.23,93,74,2.49,KE,1687823533
418,manta,-0.95,-80.7333,26.67,78,68,4.47,EC,1687823533
419,prado,-17.3411,-39.2208,21.52,81,67,1.84,BR,1687823533
420,tchintabaraden,15.8969,5.7985,31.15,43,75,7.22,NE,1687823533
421,eydhafushi,5.1033,73.0708,25.83,87,100,7.26,MV,1687823533
422,juva,56.4368,57.9478,7.0,81,46,1.75,RU,1687823534
423,sopela,43.3789,-2.9831,21.0,71,100,0.51,ES,1687823534
424,great falls,47.5002,-111.3008,24.53,52,40,4.63,US,1687823534
425,sturgeon bay,44.8342,-87.377,19.98,91,100,8.69,US,1687823534
426,las heras,-46.5419,-68.9359,2.36,78,19,3.91,AR,1687823534
427,metlili chaamba,32.2667,3.6333,29.52,25,0,2.57,DZ,1687823279
428,south hedland,-20.4089,118.5983,12.96,82,5,4.12,AU,1687823535
429,amasya,40.6667,35.8333,16.82,86,56,1.69,TR,1687823535
430,dickinson,29.4608,-95.0513,35.07,71,40,7.72,US,1687823535
431,porto novo,6.4965,2.6036,24.9,77,100,4.32,BJ,1687823535
432,puerto carreno,6.189,-67.4859,28.99,79,75,2.06,CO,1687823535
433,puerto san jose,13.9256,-90.8244,28.71,77,73,4.55,GT,1687823258
434,zouerate,22.7187,-12.4521,31.4,16,0,3.88,MR,1687823535
435,nizhneudinsk,54.9076,99.0276,14.12,61,12,3.67,RU,1687823535
436,abepura,-2.6333,140.5833,27.45,69,20,3.09,ID,1687823536
437,argo,37.6333,22.7333,23.21,63,21,1.54,GR,1687823536
438,greater sudbury,46.49,-80.99,22.54,97,100,4.58,CA,1687823251
439,embi,48.8264,58.1442,13.31,66,44,4.85,KZ,1687823536
440,bodaybo,57.8506,114.1933,22.05,65,45,1.15,RU,1687823536
441,juan rodriguez clara,17.9833,-95.4083,29.74,65,87,1.42,MX,1687823537
442,san patricio,28.017,-97.5169,35.86,54,0,7.68,US,1687823537
443,port sudan,19.6175,37.2164,31.61,50,54,1.52,SD,1687823537
444,sligo,54.2697,-8.4694,14.22,91,100,4.97,IE,1687823481
445,mirpur sakro,24.5474,67.6277,29.11,76,69,5.5,PK,1687823537
446,opuwo,-18.0607,13.84,8.71,80,0,3.07,NA,1687823537
447,zagora,30.3484,-5.8365,32.53,12,77,2.54,MA,1687823538
448,el quebrachal,-25.2833,-64.0667,21.63,60,0,1.25,AR,1687823538
449,le lavandou,43.137,6.366,23.2,92,0,1.03,FR,1687823538
450,umluj,25.0213,37.2685,28.6,68,0,4.62,SA,1687823538
451,cascais,38.6979,-9.4215,21.92,80,0,12.52,PT,1687823538
452,nuku'alofa,-21.1333,-175.2,25.19,57,20,3.6,TO,1687823538
453,macon,39.8667,-88.9668,27.03,50,75,5.66,US,1687823538
454,pasuquin,18.3328,120.6177,26.97,94,75,2.57,PH,1687823538
455,berdigestyakh,62.0989,126.6992,21.99,78,36,0.21,RU,1687823539
456,boende,-0.2167,20.8667,21.64,96,100,0.73,CD,1687823539
457,kudahuvadhoo,2.6708,72.8944,27.91,76,99,5.42,MV,1687823539
458,concordia,-31.393,-58.0209,18.77,96,96,2.68,AR,1687823378
459,biltine,14.5333,20.9167,31.34,38,34,1.21,TD,1687823539
460,rakitovo,41.9833,24.0833,13.7,92,5,1.54,BG,1687823539
461,christchurch,-43.5333,172.6333,11.62,88,75,6.69,NZ,1687823540
462,nguigmi,14.2495,13.1092,30.49,44,29,3.73,NE,1687823540
463,brezina,33.0989,1.2608,27.72,11,0,3.04,DZ,1687823540
464,shiqian,27.5225,108.2281,24.8,85,4,1.41,CN,1687823540
465,kapit,2.0167,112.9333,24.04,97,77,0.18,MY,1687823540
466,batu gajah,4.4692,101.0411,24.05,88,20,1.03,MY,1687823540
467,yuzhno-kurilsk,44.0306,145.8556,16.17,85,76,6.44,RU,1687823541
468,khovd,48.0056,91.6419,10.85,55,34,1.54,MN,1687823541
469,taft,31.7471,54.2088,25.97,20,0,2.06,IR,1687823541
470,sechura,-5.5569,-80.8222,24.6,69,64,7.95,PE,1687823541
471,sanandaj,35.3144,46.9923,18.01,37,0,0.0,IR,1687823541
472,vila velha,-20.3297,-40.2925,20.53,93,40,0.0,BR,1687823541
473,port-vila,-17.7338,168.3219,24.78,57,20,2.06,VU,1687823541
474,tabou,4.423,-7.3528,24.42,75,99,3.58,CI,1687823541
475,karakol,42.4907,78.3936,11.66,45,0,1.44,KG,1687823542
476,correia pinto,-27.5847,-50.3611,12.48,94,12,0.41,BR,1687823542
477,linfen,36.0889,111.5189,27.88,45,0,2.82,CN,1687823542
478,samalkot,17.05,82.1833,26.13,81,100,3.11,IN,1687823542
479,erenhot,43.6475,111.9767,24.25,22,46,6.3,CN,1687823542
480,san gabriel,34.0961,-118.1058,30.39,48,0,4.12,US,1687823543
481,motueka,-41.1333,173.0167,12.83,77,75,2.0,NZ,1687823543
482,cill airne,52.05,-9.5167,14.42,96,100,2.56,IE,1687823543
483,stony plain,53.5334,-114.0021,26.73,46,0,2.06,CA,1687823543
484,midland,31.9974,-102.0779,43.37,14,0,5.14,US,1687823356
485,floresville,29.1336,-98.1561,40.32,21,0,4.79,US,1687823544
486,port said,31.2565,32.2841,23.99,78,0,3.6,EG,1687823544
487,itupiranga,-5.1347,-49.3267,25.18,69,5,0.67,BR,1687823544
488,al hufuf,25.3646,49.5653,32.19,17,0,3.09,SA,1687823359
489,princeville,45.7668,-61.2985,13.57,89,100,6.17,CA,1687823544
490,estevan,49.1334,-102.9842,16.11,88,100,5.66,CA,1687823501
491,longonjo,-12.9067,15.2533,11.75,73,4,0.68,AO,1687823545
492,afaahiti,-17.75,-149.2833,28.93,77,4,7.15,PF,1687823545
493,svatove,49.4103,38.1503,16.53,97,99,2.73,UA,1687823545
494,al jawf,29.5,38.75,25.33,23,0,4.56,SA,1687823545
495,itaituba,-4.2761,-55.9836,27.61,57,96,0.82,BR,1687823545
496,miyaly,48.8844,53.7836,15.45,56,4,3.93,KZ,1687823545
497,rabo de peixe,37.8,-25.5833,19.73,88,20,5.66,PT,1687823546
498,ust'-kulom,61.6864,53.6902,10.15,93,30,1.99,RU,1687823546
499,pemangkat,1.1667,108.9667,26.11,79,8,2.72,ID,1687823546
500,holualoa,19.6228,-155.9522,26.91,79,40,6.17,US,1687823546
501,rio claro,-22.4114,-47.5614,16.43,64,0,0.95,BR,1687823546
502,luanda,-8.8368,13.2343,21.0,88,40,3.09,AO,1687823546
503,solnechnyy,50.7214,136.6319,24.56,50,38,1.67,RU,1687823547
504,myski,53.709,87.8014,11.62,69,20,1.72,RU,1687823547
505,akjoujt,19.6969,-14.4164,33.31,15,5,6.03,MR,1687823547
506,san gavino monreale,39.5514,8.7917,24.12,97,4,1.87,IT,1687823547
507,otsuchi,39.3667,141.9,23.07,80,100,4.18,JP,1687823547
508,zeribet el oued,34.6828,6.5111,32.04,30,0,1.55,DZ,1687823547
509,hirschau,49.545,11.9508,20.13,56,40,4.12,DE,1687823547
510,tomohon,1.3346,124.8392,23.52,78,13,1.02,ID,1687823547
511,villa gesell,-37.2639,-56.973,10.59,65,100,3.28,AR,1687823548
512,yinchuan,38.4681,106.2731,25.6,20,62,1.7,CN,1687823548
513,siwa oasis,29.2041,25.5195,28.01,38,0,3.2,EG,1687823548
514,la sarre,48.8002,-79.1996,15.76,99,100,2.93,CA,1687823548
515,awjilah,29.1081,21.2869,22.91,71,0,4.98,LY,1687823548
516,perros-guirec,48.8145,-3.4396,14.8,89,97,3.01,FR,1687823548
517,dili,-8.5586,125.5736,27.81,74,83,0.71,TL,1687823548
518,ponta delgada,37.7333,-25.6667,20.4,88,20,5.66,PT,1687823548
519,matoury,4.8483,-52.3317,25.98,94,75,1.03,GF,1687823550
520,swift current,50.2834,-107.8014,21.45,64,40,3.09,CA,1687823550
521,crookston,47.7741,-96.6081,28.95,42,0,0.0,US,1687823550
522,nuuk,64.1835,-51.7216,6.34,61,100,3.6,GL,1687823286
523,kirkland lake,48.1446,-80.0377,17.16,94,100,1.54,CA,1687823551
524,nova sintra,14.8667,-24.7167,20.75,79,9,5.66,CV,1687823551
525,bonthe,7.5264,-12.505,24.79,89,100,3.15,SL,1687823551
526,mentougou,39.9392,116.0917,23.52,43,0,0.38,CN,1687823551
527,shenjiamen,29.9576,122.298,24.21,94,100,6.67,CN,1687823551
528,sibu,2.3,111.8167,25.17,94,40,1.54,MY,1687823552
529,kidal,18.4411,1.4078,32.58,34,50,4.63,ML,1687823552
530,mahibadhoo,3.7833,72.9667,27.46,79,100,5.6,MV,1687823552
531,kristinestad,62.2743,21.376,11.17,92,46,1.57,FI,1687823552
532,monrovia,6.3005,-10.7969,25.02,85,100,5.75,LR,1687823498
533,horta,38.5333,-28.6333,19.45,88,36,2.24,PT,1687823553
534,turpan,42.9333,89.1667,25.05,31,0,1.06,CN,1687823553
535,sanctuary point,-35.1114,150.629,15.18,52,28,3.37,AU,1687823553
536,nuevo imperial,-13.0754,-76.3172,19.02,85,30,1.54,PE,1687823553
537,manasa,24.4837,75.2687,24.8,89,100,4.98,IN,1687823553
538,tanabe,33.7333,135.3667,25.56,94,75,3.09,JP,1687823554
539,ketchikan,55.3422,-131.6461,16.26,88,100,4.12,US,1687823497
540,san carlos,9.6612,-68.5827,24.15,94,100,0.92,VE,1687823554
541,greenville,35.6127,-77.3663,32.09,62,0,5.66,US,1687823264
542,sodankyla,67.4167,26.6,11.69,94,61,2.49,FI,1687823554
543,daru,-9.0763,143.2092,26.48,83,99,6.18,PG,1687823256
544,umba,66.6871,34.3429,11.59,81,90,3.69,RU,1687823330
545,savonlinna,61.8699,28.88,11.03,93,0,0.0,FI,1687823555
546,trenton,40.217,-74.7429,27.49,83,100,6.17,US,1687823332
547,ubinskoye,55.3068,79.6802,14.93,53,100,6.0,RU,1687823555
548,san mariano,7.5,126.0,26.83,78,100,0.87,PH,1687823555
549,ciudad bolivar,8.1222,-63.5497,28.85,66,88,0.39,VE,1687823555
550,abalak,58.1286,68.5944,11.67,69,99,4.75,RU,1687823555
551,nampa,43.5407,-116.5635,27.66,37,0,2.06,US,1687823399
552,sartana,47.1744,37.6927,18.49,88,26,2.05,UA,1687823556
553,port augusta,-32.5,137.7667,10.17,87,100,3.51,AU,1687823556
554,auna,10.1881,4.7232,25.52,79,90,1.8,NG,1687823556
555,strelka,58.0728,93.0344,11.4,72,81,2.53,RU,1687823556
556,itamaraca,-7.7478,-34.8256,24.03,88,58,4.8,BR,1687823556
557,el granada,37.5027,-122.4694,23.85,75,75,10.8,US,1687823557
558,celestun,20.8667,-90.4,28.65,72,32,8.04,MX,1687823557
559,makushino,55.2103,67.2442,11.49,93,100,9.81,RU,1687823557
560,touros,-5.1989,-35.4608,24.34,86,26,3.47,BR,1687823557
561,saudarkrokur,65.7461,-19.6394,13.34,63,84,1.6,IS,1687823557
562,three points,32.0767,-111.3137,43.55,7,0,6.69,US,1687823557
563,oranjemund,-28.55,16.4333,14.25,84,95,7.61,NA,1687823557
564,amga,60.8953,131.9608,27.83,54,70,1.1,RU,1687823558
565,pambujan,12.5642,124.9276,27.24,87,76,1.19,PH,1687823558
566,vikarabad,17.3333,77.9,23.51,79,100,5.29,IN,1687823558
567,alice springs,-23.7,133.8833,12.9,53,100,25.48,AU,1687823558
568,grande prairie,55.1667,-118.8027,26.1,41,40,4.63,CA,1687823353
569,hobyo,5.3505,48.5268,25.57,81,94,9.85,SO,1687823558
570,kyelang,32.5833,77.0333,7.29,94,99,0.71,IN,1687823558
571,krumovgrad,41.4667,25.65,21.13,89,25,1.5,BG,1687823558
